$GPGSA,A,2,,,08,,17,,,,,,28,,3.0,2.9,1.0*3E
$GPGSV,3,1,12,04,17,203,00,07,19,167,00,08,53,193,46,11,44,054,45*73
$GPGSV,3,2,12,17,54,283,43,19,00,061,00,20,16,114,00,25,02,162,00*7C
$GPGSV,3,3,12,26,10,273,00,27,30,178,41,28,67,353,39,32,11,090,00*78
$GPGLL,3411.4765,N,08356.5095,W,155212,A,A*53
$GPBOD,,T,,M,,*47
$PGRME,13.5,M,50.0,M,51.8,M*10
$PGRMZ,1239,f,2*23
$GPRTE,1,1,c,*37
$GPRMC,155214,A,3411.4671,N,08356.5120,W,22.2,191.1,071208,4.6,W,A*24
$GPRMB,A,,,,,,,,,,,,A,A*0B
$GPGGA,155214,3411.4671,N,08356.5120,W,1,03,2.9,377.7,M,-31.2,M,,*7A
$GPGSA,A,2,,,08,,17,,,,,,28,,3.0,2.9,1.0*3E
$GPGSV,3,1,12,04,17,203,00,07,19,167,00,08,53,193,47,11,44,054,45*72
$GPGSV,3,2,12,17,54,283,45,19,00,061,00,20,16,114,00,25,02,162,00*7A
$GPGSV,3,3,12,26,10,273,00,27,30,178,42,28,67,353,37,32,11,090,00*75
$GPGLL,3411.4671,N,08356.5120,W,155214,A,A*5E
$GPBOD,,T,,M,,*47
$PGRME,13.5,M,50.0,M,51.8,M*10
$PGRMZ,1239,f,2*23
$GPRTE,1,1,c,*37
$GPRMC,155216,A,3411.4550,N,08356.5149,W,22.2,191.1,071208,4.6,W,A*29
$GPRMB,A,,,,,,,,,,,,A,A*0B
$GPGGA,155216,3411.4550,N,08356.5149,W,1,03,2.9,377.7,M,-31.2,M,,*77
$GPGSA,A,2,,,08,,17,,,,,,28,,3.0,2.9,1.0*3E
$GPGSV,3,1,12,04,17,203,00,07,19,167,00,08,53,193,47,11,44,054,44*73
$GPGSV,3,2,12,17,54,283,45,19,00,061,00,20,16,114,00,25,02,162,00*7A
$GPGSV,3,3,12,26,10,273,00,27,30,178,42,28,67,353,00,32,11,090,00*71
$GPGLL,3411.4550,N,08356.5149,W,155216,A,A*53
$GPBOD,,T,,M,,*47
$PGRME,13.5,M,50.0,M,51.8,M*10
$PGRMZ,1239,f,2*23
$GPRTE,1,1,c,*37
$GPRMC,155218,A,3411.4427,N,08356.5178,W,33.2,189.8,071208,4.6,W,A*24
$GPRMB,A,,,,,,,,,,,,A,A*0B
$GPGGA,155218,3411.4427,N,08356.5178,W,1,03,2.9,377.7,M,-31.2,M,,*7A
$GPGSA,A,2,,,08,,17,,,,,,28,,3.0,2.9,1.0*3E
$GPGSV,3,1,12,04,17,203,00,07,19,167,00,08,53,193,47,11,44,054,44*73
$GPGSV,3,2,12,17,54,283,46,19,00,061,00,20,16,114,00,25,02,162,00*79
$GPGSV,3,3,12,26,10,273,00,27,30,178,42,28,67,353,31,32,11,090,00*73
$GPGLL,3411.4427,N,08356.5178,W,155218,A,A*5E
$GPBOD,,T,,M,,*47
$PGRME,13.5,M,50.0,M,51.8,M*10
$PGRMZ,1239,f,2*23
$GPRTE,1,1,c,*37
$GPRMC,155220,A,3411.4245,N,08356.5216,W,33.2,189.8,071208,4.6,W,A*26
$GPRMB,A,,,,,,,,,,,,A,A*0B
$GPGGA,155220,3411.4245,N,08356.5216,W,1,03,2.9,377.7,M,-31.2,M,,*78
$GPGSA,A,2,,,08,,17,,,,,,28,,3.0,2.9,1.0*3E
$GPGSV,3,1,12,04,17,203,00,07,19,167,00,08,53,193,47,11,44,054,44*73
$GPGSV,3,2,12,17,54,283,45,19,00,061,00,20,16,114,00,25,02,162,00*7A
$GPGSV,3,3,12,26,10,273,00,27,30,178,43,28,67,353,00,32,11,090,00*70
$GPGLL,3411.4245,N,08356.5216,W,155220,A,A*5C
$GPBOD,,T,,M,,*47
$PGRME,13.5,M,50.0,M,51.8,M*10
$PGRMZ,1239,f,2*23
$GPRTE,1,1,c,*37
$GPRMC,155222,A,3411.4063,N,08356.5254,W,33.2,189.8,071208,4.6,W,A*24
$GPRMB,A,,,,,,,,,,,,A,A*0B
$GPGGA,155222,3411.4063,N,08356.5254,W,1,03,2.9,377.7,M,-31.2,M,,*7A
$GPGSA,A,2,,,08,,17,,,,,,28,,3.0,2.9,1.0*3E
$GPGSV,3,1,12,04,17,203,00,07,19,167,00,08,53,193,47,11,44,054,44*73
$GPGSV,3,2,12,17,54,283,46,19,00,061,00,20,16,114,00,25,02,162,00*79
$GPGSV,3,3,12,26,10,273,00,27,30,178,42,28,67,353,00,32,11,090,00*71
$GPGLL,3411.4063,N,08356.5254,W,155222,A,A*5E
$GPBOD,,T,,M,,*47
$PGRME,13.5,M,50.0,M,51.8,M*10
$PGRMZ,1239,f,2*23
$GPRTE,1,1,c,*37
$GPRMC,155224,A,3411.3835,N,08356.5311,W,48.0,192.0,071208,4.6,W,A*22
$GPRMB,A,,,,,,,,,,,,A,A*0B
$GPGGA,155224,3411.3835,N,08356.5311,W,1,04,2.0,377.7,M,-31.2,M,,*7E
$GPGSA,A,2,,,08,11,17,,,,,,28,,2.2,2.0,1.0*34
$GPGSV,3,1,12,04,17,203,00,07,19,167,00,08,53,193,47,11,44,054,43*74
$GPGSV,3,2,12,17,54,283,46,19,00,061,00,20,16,114,00,25,02,162,00*79
$GPGSV,3,3,12,26,10,273,00,27,30,178,42,28,67,353,00,32,11,090,00*71
$GPGLL,3411.3835,N,08356.5311,W,155224,A,A*54
$GPBOD,,T,,M,,*47
$PGRME,8.2,M,50.0,M,50.7,M*23
$PGRMZ,1239,f,2*23
$GPRTE,1,1,c,*37
$GPRMC,155226,A,3411.3294,N,08356.5608,W,51.1,192.0,071208,4.6,W,A*25
$GPRMB,A,,,,,,,,,,,,A,A*0B
$GPGGA,155226,3411.3294,N,08356.5608,W,1,04,2.0,377.7,M,-31.2,M,,*70
$GPGSA,A,3,,,08,11,17,,,,,,28,,2.2,2.0,1.0*35
$GPGSV,3,1,12,04,17,203,00,07,19,167,00,08,53,193,47,11,44,054,43*74
$GPGSV,3,2,12,17,54,283,46,19,00,061,00,20,16,114,00,25,03,162,00*78
$GPGSV,3,3,12,26,10,273,00,27,30,178,42,28,67,353,33,32,11,090,00*71
$GPGLL,3411.3294,N,08356.5608,W,155226,A,A*5A
$GPBOD,,T,,M,,*47
$PGRME,7.0,M,23.7,M,24.7,M*2E
$PGRMZ,1239,f,3*22
$GPRTE,1,1,c,*37
$GPRMC,155228,A,3411.3006,N,08356.5675,W,53.1,192.0,071208,4.6,W,A*2A
$GPRMB,A,,,,,,,,,,,,A,A*0B
$GPGGA,155228,3411.3006,N,08356.5675,W,1,04,2.0,377.7,M,-31.2,M,,*7D
$GPGSA,A,3,,,08,11,17,,,,,,28,,2.2,2.0,1.0*35
$GPGSV,3,1,12,04,17,203,00,07,19,167,00,08,53,193,47,11,44,054,43*74
$GPGSV,3,2,12,17,54,283,46,19,00,061,00,20,16,114,00,25,03,162,00*78
$GPGSV,3,3,12,26,10,273,00,27,30,178,42,28,67,353,00,32,11,090,00*71
$GPGLL,3411.3006,N,08356.5675,W,155228,A,A*57
$GPBOD,,T,,M,,*47
$PGRME,7.0,M,23.7,M,24.7,M*2E
$PGRMZ,1239,f,3*22
$GPRTE,1,1,c,*37
$GPRMC,155230,A,3411.2714,N,08356.5751,W,54.0,191.9,071208,4.6,W,A*2D
$GPRMB,A,,,,,,,,,,,,A,A*0B
$GPGGA,155230,3411.2714,N,08356.5751,W,1,04,2.0,377.7,M,-31.2,M,,*76
$GPGSA,A,3,,,08,11,17,,,,,,28,,2.2,2.0,1.0*35
$GPGSV,3,1,12,04,17,203,00,07,19,167,00,08,53,193,47,11,44,054,43*74
$GPGSV,3,2,12,17,54,283,46,19,00,061,00,20,16,114,00,25,03,162,00*78
$GPGSV,3,3,12,26,09,273,00,27,30,178,42,28,67,353,00,32,11,090,00*79
$GPGLL,3411.2714,N,08356.5751,W,155230,A,A*5C
$GPBOD,,T,,M,,*47
$PGRME,7.0,M,23.7,M,24.7,M*2E
$PGRMZ,1239,f,3*22
$GPRTE,1,1,c,*37
$GPRMC,155232,A,3411.2417,N,08356.5828,W,54.3,192.2,071208,4.6,W,A*25
$GPRMB,A,,,,,,,,,,,,A,A*0B
$GPGGA,155232,3411.2417,N,08356.5828,W,1,04,2.0,377.7,M,-31.2,M,,*75
$GPGSA,A,3,,,08,11,17,,,,,,28,,2.8,2.0,1.7*38
$GPGSV,3,1,12,04,17,203,00,07,19,167,00,08,53,193,47,11,44,054,43*74
$GPGSV,3,2,12,17,54,283,45,19,00,061,00,20,16,114,00,25,03,162,00*7B
$GPGSV,3,3,12,26,09,273,00,27,30,178,42,28,67,353,32,32,11,090,00*78
$GPGLL,3411.2417,N,08356.5828,W,155232,A,A*5F
$GPBOD,,T,,M,,*47
$PGRME,7.0,M,23.6,M,24.6,M*2E
$PGRMZ,1239,f,3*22
$GPRTE,1,1,c,*37
$GPRMC,155234,A,3411.2124,N,08356.5904,W,53.9,192.2,071208,4.6,W,A*24
$GPRMB,A,,,,,,,,,,,,A,A*0B
$GPGGA,155234,3411.2124,N,08356.5904,W,1,04,2.0,376.8,M,-31.2,M,,*77
$GPGSA,A,3,,,08,11,17,,,,,,28,,2.2,2.0,1.0*35
$GPGSV,3,1,12,04,17,203,43,07,19,167,00,08,53,193,46,11,44,054,43*72
$GPGSV,3,2,12,17,54,283,46,19,00,061,00,20,16,114,00,25,03,162,00*78
$GPGSV,3,3,12,26,09,273,00,27,29,178,42,28,67,353,31,32,11,090,00*73
$GPGLL,3411.2124,N,08356.5904,W,155234,A,A*53
$GPBOD,,T,,M,,*47
$PGRME,7.0,M,23.6,M,24.6,M*2E
$PGRMZ,1236,f,3*2D
$GPRTE,1,1,c,*37
$GPRMC,155236,A,3411.1829,N,08356.5983,W,53.6,192.0,071208,4.6,W,A*23
$GPRMB,A,,,,,,,,,,,,A,A*0B
$GPGGA,155236,3411.1829,N,08356.5983,W,1,05,2.0,376.0,M,-31.2,M,,*74
$GPGSA,A,3,,,08,11,17,,,,,27,28,,3.0,2.0,1.9*3A
$GPGSV,3,1,12,04,17,203,43,07,19,167,37,08,53,193,47,11,44,054,43*77
$GPGSV,3,2,12,17,54,283,45,19,00,061,00,20,16,114,00,25,03,162,00*7B
$GPGSV,3,3,12,26,09,273,00,27,29,178,42,28,67,353,00,32,11,090,00*71
$GPGLL,3411.1829,N,08356.5983,W,155236,A,A*59
$GPBOD,,T,,M,,*47
$PGRME,6.8,M,21.8,M,22.8,M*23
$PGRMZ,1233,f,3*28
$GPRTE,1,1,c,*37
$GPRMC,155238,A,3411.1540,N,08356.6063,W,52.6,192.4,071208,4.6,W,A*2E
$GPRMB,A,,,,,,,,,,,,A,A*0B
$GPGGA,155238,3411.1540,N,08356.6063,W,1,05,2.0,375.0,M,-31.2,M,,*7F
$GPGSA,A,3,,,08,11,17,,,,,27,28,,4.3,2.0,3.3*36
$GPGSV,3,1,12,04,17,203,44,07,19,167,38,08,53,193,47,11,44,054,44*78
$GPGSV,3,2,12,17,54,283,45,19,00,061,00,20,16,114,00,25,03,162,00*7B
$GPGSV,3,3,12,26,09,273,00,27,29,178,42,28,68,355,00,32,11,090,00*78
$GPGLL,3411.1540,N,08356.6063,W,155238,A,A*51
$GPBOD,,T,,M,,*47
$PGRME,6.8,M,22.9,M,24.0,M*2F
$PGRMZ,1230,f,3*2B
$GPRTE,1,1,c,*37
$GPRMC,155240,A,3411.1257,N,08356.6137,W,51.8,192.3,071208,4.6,W,A*2A
$GPRMB,A,,,,,,,,,,,,A,A*0B
$GPGGA,155240,3411.1257,N,08356.6137,W,1,05,2.0,375.3,M,-31.2,M,,*72
$GPGSA,A,3,,,08,11,17,,,,,27,28,,4.5,2.0,3.6*35
$GPGSV,3,1,12,04,17,203,42,07,19,167,37,08,53,193,47,11,44,054,45*70
$GPGSV,3,2,12,17,54,283,45,19,00,061,00,20,16,114,00,25,03,162,00*7B
$GPGSV,3,3,12,26,09,273,00,27,29,178,42,28,68,355,39,32,11,090,00*72
$GPGLL,3411.1257,N,08356.6137,W,155240,A,A*5F
$GPBOD,,T,,M,,*47
$PGRME,6.7,M,20.5,M,21.5,M*2E
$PGRMZ,1231,f,3*2A
$GPRTE,1,1,c,*37
$GPRMC,155242,A,3411.0976,N,08356.6208,W,51.3,192.6,071208,4.6,W,A*20
$GPRMB,A,,,,,,,,,,,,A,A*0B
$GPGGA,155242,3411.0976,N,08356.6208,W,1,05,2.2,375.9,M,-31.2,M,,*7E
$GPGSA,A,3,,,08,11,17,,,,,27,28,,2.8,2.2,1.0*38
$GPGSV,3,1,12,04,17,203,00,07,19,167,00,08,53,193,45,11,44,054,46*73
$GPGSV,3,2,12,17,54,283,43,19,00,061,00,20,16,114,00,25,03,162,00*7D
$GPGSV,3,3,12,26,09,273,00,27,29,178,42,28,68,355,40,32,11,090,00*7C
$GPGLL,3411.0976,N,08356.6208,W,155242,A,A*5B
$GPBOD,,T,,M,,*47
$PGRME,7.3,M,18.6,M,21.6,M*20
$PGRMZ,1233,f,3*28
$GPRTE,1,1,c,*37
$GPRMC,155244,A,3411.0696,N,08356.6283,W,51.4,193.1,071208,4.6,W,A*25
$GPRMB,A,,,,,,,,,,,,A,A*0B
$GPGGA,155244,3411.0696,N,08356.6283,W,1,05,2.6,376.4,M,-31.2,M,,*70
$GPGSA,A,3,,,08,11,17,,,,,27,28,,2.8,2.6,1.0*3C
$GPGSV,3,1,12,04,17,203,00,07,19,167,00,08,53,193,44,11,44,054,46*72
$GPGSV,3,2,12,17,54,283,41,19,00,061,00,20,16,114,00,25,03,162,00*7F
$GPGSV,3,3,12,26,09,273,00,27,29,178,41,28,68,355,41,32,11,090,00*7E
$GPGLL,3411.0696,N,08356.6283,W,155244,A,A*5F
$GPBOD,,T,,M,,*47
$PGRME,7.7,M,17.2,M,20.8,M*20
$PGRMZ,1235,f,3*2E
$GPRTE,1,1,c,*37
$GPRMC,155246,A,3411.0415,N,08356.6360,W,51.6,193.5,071208,4.6,W,A*24
$GPRMB,A,,,,,,,,,,,,A,A*0B
$GPGGA,155246,3411.0415,N,08356.6360,W,1,05,2.6,376.6,M,-31.2,M,,*75
$GPGSA,A,3,,,08,11,17,,,,,27,28,,2.8,2.6,1.0*3C
$GPGSV,3,1,12,04,17,203,39,07,19,167,00,08,53,193,44,11,44,054,46*78
$GPGSV,3,2,12,17,54,283,40,19,00,061,00,20,16,114,00,25,03,162,00*7E
$GPGSV,3,3,12,26,09,273,00,27,29,178,41,28,68,355,41,32,11,090,00*7E
$GPGLL,3411.0415,N,08356.6360,W,155246,A,A*58
$GPBOD,,T,,M,,*47
$PGRME,7.2,M,16.3,M,20.0,M*2D
$PGRMZ,1235,f,3*2E
$GPRTE,1,1,c,*37
$GPRMC,155248,A,3411.0134,N,08356.6440,W,51.9,193.4,071208,4.6,W,A*27
$GPRMB,A,,,,,,,,,,,,A,A*0B
$GPGGA,155248,3411.0134,N,08356.6440,W,1,05,2.6,376.6,M,-31.2,M,,*78
$GPGSA,A,3,,,08,11,17,,,,,27,28,,2.8,2.6,1.0*3C
$GPGSV,3,1,12,04,17,203,36,07,19,167,00,08,53,193,43,11,44,054,45*73
$GPGSV,3,2,12,17,54,283,40,19,00,061,00,20,16,114,00,25,03,162,00*7E
$GPGSV,3,3,12,26,09,273,00,27,29,178,41,28,68,355,41,32,11,090,00*7E
$GPGLL,3411.0134,N,08356.6440,W,155248,A,A*55
$GPBOD,,T,,M,,*47
$PGRME,6.8,M,15.9,M,19.2,M*27
$PGRMZ,1235,f,3*2E
$GPRTE,1,1,c,*37
$GPRMC,155250,A,3410.9850,N,08356.6521,W,52.4,193.5,071208,4.6,W,A*24
$GPRMB,A,,,,,,,,,,,,A,A*0B
$GPGGA,155250,3410.9850,N,08356.6521,W,1,05,2.6,376.6,M,-31.2,M,,*74
$GPGSA,A,3,,,08,11,17,,,,,27,28,,2.8,2.6,1.0*3C
$GPGSV,3,1,12,04,17,203,37,07,19,167,00,08,53,193,43,11,44,054,46*71
$GPGSV,3,2,12,17,54,283,39,19,00,061,00,20,16,114,00,25,03,162,00*70
$GPGSV,3,3,12,26,09,273,00,27,29,178,41,28,68,355,42,32,11,090,00*7D
$GPGLL,3410.9850,N,08356.6521,W,155250,A,A*59
$GPBOD,,T,,M,,*47
$PGRME,7.2,M,15.0,M,18.6,M*20
$PGRMZ,1235,f,3*2E
$GPRTE,1,1,c,*37
$GPRMC,155252,A,3410.9564,N,08356.6603,W,52.8,193.4,071208,4.6,W,A*22
$GPRMB,A,,,,,,,,,,,,A,A*0B
$GPGGA,155252,3410.9564,N,08356.6603,W,1,05,2.6,376.3,M,-31.2,M,,*7A
$GPGSA,A,3,,,08,11,17,,,,,27,28,,2.8,2.6,1.0*3C
$GPGSV,3,1,12,04,17,203,40,07,19,167,00,08,53,193,43,11,44,054,46*71
$GPGSV,3,2,12,17,54,283,39,19,00,061,00,20,16,114,00,25,03,162,00*70
$GPGSV,3,3,12,26,09,273,00,27,29,178,41,28,68,355,42,32,11,090,00*7D
$GPGLL,3410.9564,N,08356.6603,W,155252,A,A*52
$GPBOD,,T,,M,,*47
$PGRME,6.8,M,15.5,M,18.9,M*21
$PGRMZ,1234,f,3*2F
$GPRTE,1,1,c,*37
$GPRMC,155254,A,3410.9277,N,08356.6684,W,53.1,193.0,071208,4.6,W,A*22
$GPRMB,A,,,,,,,,,,,,A,A*0B
$GPGGA,155254,3410.9277,N,08356.6684,W,1,05,2.0,376.2,M,-31.2,M,,*71
$GPGSA,A,3,,,08,11,17,,,,,27,28,,3.2,2.0,1.5*34
$GPGSV,3,1,12,04,17,203,39,07,19,167,00,08,53,193,43,11,44,054,46*7F
$GPGSV,3,2,12,17,54,283,39,19,00,061,00,20,16,114,00,25,03,162,00*70
$GPGSV,3,3,12,26,09,273,00,27,29,178,40,28,68,355,42,32,11,089,00*74
$GPGLL,3410.9277,N,08356.6684,W,155254,A,A*5E
$GPBOD,,T,,M,,*47
$PGRME,6.8,M,15.2,M,18.6,M*29
$PGRMZ,1234,f,3*2F
$GPRTE,1,1,c,*37
$GPRMC,155256,A,3410.8987,N,08356.6760,W,53.2,192.4,071208,4.5,W,A*2B
$GPRMB,A,,,,,,,,,,,,A,A*0B
$GPGGA,155256,3410.8987,N,08356.6760,W,1,05,2.1,378.7,M,-31.2,M,,*77
$GPGSA,A,3,,,08,11,17,,,,,27,28,,3.0,2.1,1.0*32
$GPGSV,3,1,12,04,17,203,37,07,19,167,36,08,53,193,44,11,44,054,46*73
$GPGSV,3,2,12,17,54,283,39,19,00,061,00,20,16,114,00,25,03,162,00*70
$GPGSV,3,3,12,26,09,273,00,27,29,178,41,28,68,355,42,32,11,089,00*75
$GPGLL,3410.8987,N,08356.6760,W,155256,A,A*52
$GPBOD,,T,,M,,*47
$PGRME,6.8,M,15.2,M,18.6,M*29
$PGRMZ,1243,f,3*2F
$GPRTE,1,1,c,*37
$GPRMC,155258,A,3410.8697,N,08356.6837,W,53.5,192.6,071208,4.5,W,A*23
$GPRMB,A,,,,,,,,,,,,A,A*0B
$GPGGA,155258,3410.8697,N,08356.6837,W,1,05,2.2,380.5,M,-31.2,M,,*7C
$GPGSA,A,3,,,08,11,17,,,,,27,28,,2.8,2.2,1.0*38
$GPGSV,3,1,12,04,17,203,39,07,19,167,36,08,53,193,44,11,44,054,46*7D
$GPGSV,3,2,12,17,54,283,39,19,00,061,00,20,16,114,00,25,03,162,00*70
$GPGSV,3,3,12,26,09,273,00,27,29,178,41,28,68,355,42,32,11,089,00*75
$GPGLL,3410.8697,N,08356.6837,W,155258,A,A*5F
$GPBOD,,T,,M,,*47
$PGRME,7.2,M,14.4,M,18.1,M*22
$PGRMZ,1248,f,3*24
$GPRTE,1,1,c,*37
$GPRMC,155300,A,3410.8409,N,08356.6914,W,52.7,192.4,071208,4.5,W,A*2B
$GPRMB,A,,,,,,,,,,,,A,A*0B
$GPGGA,155300,3410.8409,N,08356.6914,W,1,05,2.2,381.4,M,-31.2,M,,*75
$GPGSA,A,3,,,08,11,17,,,,,27,28,,2.8,2.2,1.0*38
$GPGSV,3,1,12,04,17,203,38,07,19,167,00,08,53,193,44,11,44,054,46*79
$GPGSV,3,2,12,17,54,283,41,19,00,061,00,20,16,114,00,25,03,162,00*7F
$GPGSV,3,3,12,26,09,273,00,27,29,178,40,28,68,355,42,32,11,089,00*74
$GPGLL,3410.8409,N,08356.6914,W,155300,A,A*56
$GPBOD,,T,,M,,*47
$PGRME,6.8,M,15.0,M,18.5,M*28
$PGRMZ,1251,f,3*2C
$GPRTE,1,1,c,*37
$GPRMC,155302,A,3410.8131,N,08356.6987,W,50.5,192.5,071208,4.5,W,A*2C
$GPRMB,A,,,,,,,,,,,,A,A*0B
$GPGGA,155302,3410.8131,N,08356.6987,W,1,05,2.1,382.6,M,-31.2,M,,*71
$GPGSA,A,3,,,08,11,17,,,,,27,28,,3.0,2.1,1.0*32
$GPGSV,3,1,12,04,17,203,40,07,19,167,00,08,53,193,44,11,44,054,46*76
$GPGSV,3,2,12,17,54,283,41,19,00,061,00,20,16,114,00,25,03,162,00*7F
$GPGSV,3,3,12,26,09,273,00,27,29,178,40,28,68,355,41,32,11,089,00*77
$GPGLL,3410.8131,N,08356.6987,W,155302,A,A*50
$GPBOD,,T,,M,,*47
$PGRME,6.8,M,15.0,M,18.5,M*28
$PGRMZ,1255,f,3*28
$GPRTE,1,1,c,*37
$GPRMC,155304,A,3410.7864,N,08356.7072,W,48.8,197.4,071208,4.5,W,A*2E
$GPRMB,A,,,,,,,,,,,,A,A*0B
$GPGGA,155304,3410.7864,N,08356.7072,W,1,05,2.6,383.6,M,-31.2,M,,*75
$GPGSA,A,3,,,08,11,17,,,,,27,28,,2.8,2.6,1.0*3C
$GPGSV,3,1,12,04,17,203,40,07,19,167,36,08,53,193,45,11,44,054,46*72
$GPGSV,3,2,12,17,54,283,39,19,00,061,00,20,16,114,00,25,03,162,00*70
$GPGSV,3,3,12,26,09,273,00,27,29,178,39,28,68,355,41,32,11,089,00*79
$GPGLL,3410.7864,N,08356.7072,W,155304,A,A*52
$GPBOD,,T,,M,,*47
$PGRME,7.2,M,14.2,M,18.0,M*25
$PGRMZ,1259,f,3*24
$GPRTE,1,1,c,*37
$GPRMC,155306,A,3410.7610,N,08356.7185,W,48.6,207.6,071208,4.5,W,A*2E
$GPRMB,A,,,,,,,,,,,,A,A*0B
$GPGGA,155306,3410.7610,N,08356.7185,W,1,05,2.0,384.1,M,-31.2,M,,*75
$GPGSA,A,3,,,08,11,17,,,,,27,28,,3.2,2.0,1.5*34
$GPGSV,3,1,12,04,17,203,40,07,19,167,35,08,53,193,45,11,44,054,48*7F
$GPGSV,3,2,12,17,54,283,44,19,00,061,00,20,16,114,00,25,03,162,00*7A
$GPGSV,3,3,12,26,09,273,00,27,29,178,40,28,68,355,39,32,11,089,00*78
$GPGLL,3410.7610,N,08356.7185,W,155306,A,A*54
$GPBOD,,T,,M,,*47
$PGRME,6.8,M,14.3,M,17.7,M*27
$PGRMZ,1260,f,3*2E
$GPRTE,1,1,c,*37
$GPRMC,155308,A,3410.7387,N,08356.7377,W,49.7,217.6,071208,4.5,W,A*25
$GPRMB,A,,,,,,,,,,,,A,A*0B
$GPGGA,155308,3410.7387,N,08356.7377,W,1,05,1.8,384.4,M,-31.2,M,,*71
$GPGSA,A,3,,,08,11,17,,,,,27,28,,2.0,1.8,1.0*39
$GPGSV,3,1,12,04,18,204,41,07,19,167,00,08,53,193,43,11,44,054,49*77
$GPGSV,3,2,12,17,54,283,45,19,00,061,00,20,16,114,00,25,03,162,00*7B
$GPGSV,3,3,12,26,09,273,00,27,29,178,39,28,68,355,39,32,11,089,00*76
$GPGLL,3410.7387,N,08356.7377,W,155308,A,A*5E
$GPBOD,,T,,M,,*47
$PGRME,7.0,M,15.4,M,18.7,M*27
$PGRMZ,1261,f,3*2F
$GPRTE,1,1,c,*37
$GPRMC,155310,A,3410.7172,N,08356.7600,W,51.4,221.3,071208,4.5,W,A*2B
$GPRMB,A,,,,,,,,,,,,A,A*0B
$GPGGA,155310,3410.7172,N,08356.7600,W,1,05,1.9,384.9,M,-31.2,M,,*79
$GPGSA,A,3,,,08,11,17,,,,,27,28,,2.7,1.9,1.7*38
$GPGSV,3,1,12,04,18,204,41,07,19,167,00,08,53,193,00,11,44,054,50*78
$GPGSV,3,2,12,17,54,283,45,19,00,061,00,20,16,114,41,25,03,162,00*7E
$GPGSV,3,3,12,26,09,273,00,27,29,178,40,28,68,355,38,32,11,089,00*79
$GPGLL,3410.7172,N,08356.7600,W,155310,A,A*5A
$GPBOD,,T,,M,,*47
$PGRME,7.0,M,15.4,M,18.7,M*27
$PGRMZ,1263,f,3*2D
$GPRTE,1,1,c,*37
$GPRMC,155312,A,3410.6954,N,08356.7831,W,52.4,221.8,071208,4.5,W,A*20
$GPRMB,A,,,,,,,,,,,,A,A*0B
$GPGGA,155312,3410.6954,N,08356.7831,W,1,05,1.9,385.1,M,-31.2,M,,*73
$GPGSA,A,3,,,08,11,17,,,,,27,28,,3.3,1.9,2.4*3D
$GPGSV,3,1,12,04,18,204,41,07,19,167,36,08,53,193,00,11,44,054,50*7D
$GPGSV,3,2,12,17,54,283,43,19,00,061,00,20,16,114,40,25,03,162,00*79
$GPGSV,3,3,12,26,09,273,00,27,29,178,41,28,68,355,37,32,11,089,00*77
$GPGLL,3410.6954,N,08356.7831,W,155312,A,A*59
$GPBOD,,T,,M,,*47
$PGRME,7.2,M,16.4,M,19.5,M*25
$PGRMZ,1263,f,3*2D
$GPRTE,1,1,c,*37
$GPRMC,155314,A,3410.6736,N,08356.8067,W,52.8,221.8,071208,4.5,W,A*24
$GPRMB,A,,,,,,,,,,,,A,A*0B
$GPGGA,155314,3410.6736,N,08356.8067,W,1,05,1.9,385.1,M,-31.2,M,,*7B
$GPGSA,A,3,,,08,11,17,,,,,27,28,,3.3,1.9,2.4*3D
$GPGSV,3,1,12,04,18,204,41,07,19,167,00,08,53,193,00,11,44,054,50*78
$GPGSV,3,2,12,17,54,283,42,19,00,061,00,20,16,114,39,25,03,162,00*76
$GPGSV,3,3,12,26,09,273,00,27,29,178,41,28,68,355,36,32,11,089,00*76
$GPGLL,3410.6736,N,08356.8067,W,155314,A,A*51
$GPBOD,,T,,M,,*47
$PGRME,7.2,M,16.4,M,19.5,M*25
$PGRMZ,1263,f,3*2D
$GPRTE,1,1,c,*37
$GPRMC,155316,A,3410.6517,N,08356.8302,W,52.8,221.4,071208,4.5,W,A*2B
$GPRMB,A,,,,,,,,,,,,A,A*0B
$GPGGA,155316,3410.6517,N,08356.8302,W,1,05,1.8,385.1,M,-31.2,M,,*79
$GPGSA,A,3,,,08,11,17,,,,,27,28,,2.0,1.8,1.0*39
$GPGSV,3,1,12,04,18,204,41,07,19,167,37,08,53,193,00,11,44,054,50*7C
$GPGSV,3,2,12,17,54,283,42,19,00,061,00,20,16,114,38,25,03,162,00*77
$GPGSV,3,3,12,26,09,273,00,27,29,178,41,28,68,355,35,32,11,089,00*75
$GPGLL,3410.6517,N,08356.8302,W,155316,A,A*52
$GPBOD,,T,,M,,*47
$PGRME,7.1,M,16.4,M,17.9,M*24
$PGRMZ,1263,f,3*2D
$GPRTE,1,1,c,*37
$GPRMC,155318,A,3410.6297,N,08356.8536,W,52.8,221.5,071208,4.5,W,A*2A
$GPRMB,A,,,,,,,,,,,,A,A*0B
$GPGGA,155318,3410.6297,N,08356.8536,W,1,04,1.8,385.0,M,-31.2,M,,*79
$GPGSA,A,3,,,,11,17,,,,,27,28,,2.0,1.8,1.0*31
$GPGSV,3,1,12,04,18,204,41,07,18,167,00,08,53,193,00,11,44,054,50*79
$GPGSV,3,2,12,17,54,283,42,19,00,061,00,20,16,114,37,25,03,162,00*78
$GPGSV,3,3,12,26,09,273,00,27,29,178,41,28,68,355,34,32,11,089,00*74
$GPGLL,3410.6297,N,08356.8536,W,155318,A,A*52
$GPBOD,,T,,M,,*47
$PGRME,7.1,M,16.4,M,17.9,M*24
$PGRMZ,1263,f,3*2D
$GPRTE,1,1,c,*37
$GPRMC,155320,A,3410.6077,N,08356.8769,W,52.4,221.5,071208,4.5,W,A*29
$GPRMB,A,,,,,,,,,,,,A,A*0B
$GPGGA,155320,3410.6077,N,08356.8769,W,1,04,1.8,385.0,M,-31.2,M,,*76
$GPGSA,A,3,,,,11,17,,,,,27,28,,2.0,1.8,1.0*31
$GPGSV,3,1,12,04,18,204,41,07,18,167,00,08,53,193,00,11,44,054,50*79
$GPGSV,3,2,12,17,54,283,43,19,00,061,00,20,16,114,00,25,03,162,00*7D
$GPGSV,3,3,12,26,09,273,00,27,29,178,41,28,68,355,34,32,11,089,00*74
$GPGLL,3410.6077,N,08356.8769,W,155320,A,A*5D
$GPBOD,,T,,M,,*47
$PGRME,7.1,M,16.4,M,17.9,M*24
$PGRMZ,1263,f,3*2D
$GPRTE,1,1,c,*37
$GPRMC,155322,A,3410.5859,N,08356.9001,W,52.3,221.2,071208,4.5,W,A*24
$GPRMB,A,,,,,,,,,,,,A,A*0B
$GPGGA,155322,3410.5859,N,08356.9001,W,1,04,1.9,384.9,M,-31.2,M,,*72
$GPGSA,A,3,,,,11,17,,,,,27,28,,2.7,1.9,1.7*30
$GPGSV,3,1,12,04,18,204,41,07,18,167,00,08,53,193,00,11,44,054,50*79
$GPGSV,3,2,12,17,54,283,43,19,00,061,00,20,16,114,00,25,03,162,00*7D
$GPGSV,3,3,12,26,09,273,00,27,29,178,41,28,68,355,35,32,11,089,00*75
$GPGLL,3410.5859,N,08356.9001,W,155322,A,A*50
$GPBOD,,T,,M,,*47
$PGRME,7.2,M,17.3,M,18.8,M*2F
$PGRMZ,1263,f,3*2D
$GPRTE,1,1,c,*37
$GPRMC,155324,A,3410.5641,N,08356.9233,W,52.0,221.1,071208,4.5,W,A*26
$GPRMB,A,,,,,,,,,,,,A,A*0B
$GPGGA,155324,3410.5641,N,08356.9233,W,1,04,1.9,384.7,M,-31.2,M,,*7E
$GPGSA,A,3,,,,11,17,,,,,27,28,,2.7,1.9,1.7*30
$GPGSV,3,1,12,04,18,204,41,07,18,167,37,08,52,193,00,11,44,054,50*7C
$GPGSV,3,2,12,17,54,283,43,19,00,061,00,20,16,114,42,25,03,162,00*7B
$GPGSV,3,3,12,26,09,273,00,27,29,178,42,28,68,355,35,32,11,089,00*76
$GPGLL,3410.5641,N,08356.9233,W,155324,A,A*52
$GPBOD,,T,,M,,*47
$PGRME,7.2,M,17.3,M,18.8,M*2F
$PGRMZ,1262,f,3*2C
$GPRTE,1,1,c,*37
$GPRMC,155326,A,3410.5421,N,08356.9461,W,51.9,220.1,071208,4.5,W,A*2A
$GPRMB,A,,,,,,,,,,,,A,A*0B
$GPGGA,155326,3410.5421,N,08356.9461,W,1,05,1.9,385.2,M,-31.2,M,,*7C
$GPGSA,A,3,,,08,11,17,,,,,27,28,,3.4,1.9,2.6*38
$GPGSV,3,1,12,04,18,204,42,07,18,167,00,08,52,193,38,11,44,054,50*70
$GPGSV,3,2,12,17,54,283,42,19,00,061,00,20,16,114,41,25,03,162,00*79
$GPGSV,3,3,12,26,09,273,00,27,29,178,41,28,68,355,34,32,11,089,00*74
$GPGLL,3410.5421,N,08356.9461,W,155326,A,A*55
$GPBOD,,T,,M,,*47
$PGRME,6.8,M,17.9,M,19.3,M*24
$PGRMZ,1264,f,3*2A
$GPRTE,1,1,c,*37
$GPRMC,155328,A,3410.5191,N,08356.9665,W,51.7,215.4,071208,4.5,W,A*21
$GPRMB,A,,,,,,,,,,,,A,A*0B
$GPGGA,155328,3410.5191,N,08356.9665,W,1,05,1.9,384.9,M,-31.2,M,,*70
$GPGSA,A,3,,,08,11,17,,,,,27,28,,2.6,1.9,1.5*3B
$GPGSV,3,1,12,04,18,204,42,07,18,167,00,08,52,193,40,11,44,054,51*7E
$GPGSV,3,2,12,17,54,283,41,19,00,061,00,20,16,114,00,25,03,162,00*7F
$GPGSV,3,3,12,26,09,273,00,27,29,178,40,28,68,355,34,32,11,089,00*75
$GPGLL,3410.5191,N,08356.9665,W,155328,A,A*53
$GPBOD,,T,,M,,*47
$PGRME,6.8,M,18.1,M,19.5,M*25
$PGRMZ,1263,f,3*2D
$GPRTE,1,1,c,*37
$GPRMC,155330,A,3410.4953,N,08356.9860,W,51.8,214.1,071208,4.5,W,A*2F
$GPRMB,A,,,,,,,,,,,,A,A*0B
$GPGGA,155330,3410.4953,N,08356.9860,W,1,05,1.9,384.1,M,-31.2,M,,*7D
$GPGSA,A,3,,,08,11,17,,,,,27,28,,3.0,1.9,1.8*31
$GPGSV,3,1,12,04,18,204,42,07,18,167,00,08,52,193,41,11,44,054,51*7F
$GPGSV,3,2,12,17,54,283,42,19,00,061,00,20,16,114,00,25,03,162,00*7C
$GPGSV,3,3,12,26,09,273,00,27,29,178,39,28,68,355,34,32,11,089,00*7B
$GPGLL,3410.4953,N,08356.9860,W,155330,A,A*56
$GPBOD,,T,,M,,*47
$PGRME,6.8,M,18.1,M,19.5,M*25
$PGRMZ,1260,f,3*2E
$GPRTE,1,1,c,*37
$GPRMC,155332,A,3410.4712,N,08357.0056,W,52.4,213.9,071208,4.5,W,A*23
$GPRMB,A,,,,,,,,,,,,A,A*0B
$GPGGA,155332,3410.4712,N,08357.0056,W,1,05,2.0,383.6,M,-31.2,M,,*7B
$GPGSA,A,3,,,08,11,17,,,,,27,28,,4.0,2.0,3.0*36
$GPGSV,3,1,12,04,18,204,42,07,18,167,00,08,52,193,41,11,44,054,52*7C
$GPGSV,3,2,12,17,54,283,42,19,00,061,00,20,16,114,00,25,03,162,00*7C
$GPGSV,3,3,12,26,09,273,00,27,29,178,39,28,68,355,35,32,11,089,00*7A
$GPGLL,3410.4712,N,08357.0056,W,155332,A,A*5A
$GPBOD,,T,,M,,*47
$PGRME,6.8,M,18.1,M,19.5,M*25
$PGRMZ,1258,f,3*25
$GPRTE,1,1,c,*37
$GPRMC,155334,A,3410.4470,N,08357.0252,W,52.7,214.2,071208,4.5,W,A*2B
$GPRMB,A,,,,,,,,,,,,A,A*0B
$GPGGA,155334,3410.4470,N,08357.0252,W,1,05,2.0,383.3,M,-31.2,M,,*79
$GPGSA,A,3,,,08,11,17,,,,,27,28,,4.8,2.0,3.9*37
$GPGSV,3,1,12,04,18,204,42,07,18,167,00,08,52,193,41,11,43,054,52*7B
$GPGSV,3,2,12,17,54,283,41,19,00,061,00,20,16,114,39,25,03,162,00*75
$GPGSV,3,3,12,26,09,273,00,27,29,178,39,28,68,355,34,32,11,089,00*7B
$GPGLL,3410.4470,N,08357.0252,W,155334,A,A*5D
$GPBOD,,T,,M,,*47
$PGRME,6.9,M,19.8,M,21.1,M*23
$PGRMZ,1258,f,3*25
$GPRTE,1,1,c,*37
$GPRMC,155336,A,3410.4223,N,08357.0455,W,53.8,214.3,071208,4.5,W,A*27
$GPRMB,A,,,,,,,,,,,,A,A*0B
$GPGGA,155336,3410.4223,N,08357.0455,W,1,06,1.7,383.4,M,-31.2,M,,*7A
$GPGSA,A,3,04,,08,11,17,,,,,27,28,,3.4,1.7,3.0*35
$GPGSV,3,1,12,04,18,204,42,07,18,167,00,08,52,193,42,11,43,054,52*78
$GPGSV,3,2,12,17,54,283,42,19,00,061,00,20,16,114,40,25,03,162,00*78
$GPGSV,3,3,12,26,09,273,00,27,29,178,39,28,68,355,34,32,11,089,00*7B
$GPGLL,3410.4223,N,08357.0455,W,155336,A,A*5E
$GPBOD,,T,,M,,*47
$PGRME,6.1,M,12.3,M,13.7,M*2C
$PGRMZ,1258,f,3*25
$GPRTE,1,1,c,*37
$GPRMC,155338,A,3410.3974,N,08357.0659,W,54.1,214.4,071208,4.5,W,A*20
$GPRMB,A,,,,,,,,,,,,A,A*0B
$GPGGA,155338,3410.3974,N,08357.0659,W,1,06,1.7,382.8,M,-31.2,M,,*79
$GPGSA,A,3,04,,08,11,17,,,,,27,28,,3.4,1.7,3.0*35
$GPGSV,3,1,12,04,18,204,42,07,18,167,00,08,52,193,42,11,43,054,52*78
$GPGSV,3,2,12,17,54,283,42,19,00,061,00,20,16,114,40,25,03,162,00*78
$GPGSV,3,3,12,26,09,273,00,27,29,178,38,28,68,355,34,32,11,089,00*7A
$GPGLL,3410.3974,N,08357.0659,W,155338,A,A*50
$GPBOD,,T,,M,,*47
$PGRME,6.1,M,12.3,M,13.7,M*2C
$PGRMZ,1256,f,3*2B
$GPRTE,1,1,c,*37
$GPRMC,155340,A,3410.3726,N,08357.0862,W,53.8,214.2,071208,4.5,W,A*28
$GPRMB,A,,,,,,,,,,,,A,A*0B
$GPGGA,155340,3410.3726,N,08357.0862,W,1,06,1.8,382.3,M,-31.2,M,,*7D
$GPGSA,A,3,04,,08,11,17,,,,,27,28,,3.5,1.8,3.0*3B
$GPGSV,3,1,12,04,18,204,42,07,18,167,00,08,52,193,42,11,43,054,52*78
$GPGSV,3,2,12,17,54,283,42,19,00,061,00,20,16,114,40,25,03,162,00*78
$GPGSV,3,3,12,26,09,273,00,27,29,178,38,28,68,355,34,32,11,089,00*7A
$GPGLL,3410.3726,N,08357.0862,W,155340,A,A*50
$GPBOD,,T,,M,,*47
$PGRME,6.1,M,12.3,M,13.7,M*2C
$PGRMZ,1254,f,3*29
$GPRTE,1,1,c,*37
$GPRMC,155342,A,3410.3479,N,08357.1064,W,53.5,214.1,071208,4.5,W,A*22
$GPRMB,A,,,,,,,,,,,,A,A*0B
$GPGGA,155342,3410.3479,N,08357.1064,W,1,06,1.7,382.1,M,-31.2,M,,*74
$GPGSA,A,3,04,,08,11,17,,,,,27,28,,3.3,1.7,2.8*3B
$GPGSV,3,1,12,04,18,204,42,07,18,167,00,08,52,193,41,11,43,054,52*7B
$GPGSV,3,2,12,17,54,283,41,19,00,061,00,20,16,114,00,25,03,162,00*7F
$GPGSV,3,3,12,26,09,273,00,27,29,178,38,28,68,355,34,32,11,089,00*7A
$GPGLL,3410.3479,N,08357.1064,W,155342,A,A*54
$GPBOD,,T,,M,,*47
$PGRME,6.1,M,12.3,M,13.7,M*2C
$PGRMZ,1254,f,3*29
$GPRTE,1,1,c,*37
$GPRMC,155344,A,3410.3233,N,08357.1264,W,53.2,214.0,071208,4.5,W,A*28
$GPRMB,A,,,,,,,,,,,,A,A*0B
$GPGGA,155344,3410.3233,N,08357.1264,W,1,06,2.4,381.7,M,-31.2,M,,*7D
$GPGSA,A,3,04,,08,11,17,,,,,27,28,,4.0,2.4,2.9*3E
$GPGSV,3,1,12,04,18,204,42,07,18,167,00,08,52,193,42,11,43,054,52*78
$GPGSV,3,2,12,17,54,283,39,19,00,061,00,20,16,114,00,25,03,162,00*70
$GPGSV,3,3,12,26,09,273,00,27,29,178,37,28,68,355,34,32,11,089,00*75
$GPGLL,3410.3233,N,08357.1264,W,155344,A,A*58
$GPBOD,,T,,M,,*47
$PGRME,6.1,M,12.3,M,13.7,M*2C
$PGRMZ,1252,f,3*2F
$GPRTE,1,1,c,*37
$GPRMC,155346,A,3410.2990,N,08357.1462,W,52.5,214.0,071208,4.5,W,A*2F
$GPRMB,A,,,,,,,,,,,,A,A*0B
$GPGGA,155346,3410.2990,N,08357.1462,W,1,06,2.0,381.3,M,-31.2,M,,*7C
$GPGSA,A,3,04,,08,11,17,,,,,27,28,,3.7,2.0,2.9*3A
$GPGSV,3,1,12,04,18,204,42,07,18,167,00,08,52,192,41,11,43,054,52*7A
$GPGSV,3,2,12,17,54,283,41,19,00,061,00,20,16,114,00,25,03,162,00*7F
$GPGSV,3,3,12,26,09,273,00,27,29,178,37,28,68,355,35,32,11,089,00*74
$GPGLL,3410.2990,N,08357.1462,W,155346,A,A*59
$GPBOD,,T,,M,,*47
$PGRME,6.1,M,12.3,M,13.7,M*2C
$PGRMZ,1251,f,3*2C
$GPRTE,1,1,c,*37
$GPRMC,155348,A,3410.2751,N,08357.1656,W,51.5,213.9,071208,4.5,W,A*2A
$GPRMB,A,,,,,,,,,,,,A,A*0B
$GPGGA,155348,3410.2751,N,08357.1656,W,1,06,1.7,380.9,M,-31.2,M,,*7B
$GPGSA,A,3,04,,08,11,17,,,,,27,28,,3.4,1.7,2.9*3D
$GPGSV,3,1,12,04,18,204,42,07,18,167,00,08,52,192,41,11,43,054,52*7A
$GPGSV,3,2,12,17,54,283,41,19,00,061,00,20,16,114,00,25,03,162,00*7F
$GPGSV,3,3,12,26,09,273,00,27,29,178,38,28,68,355,35,32,11,089,00*7B
$GPGLL,3410.2751,N,08357.1656,W,155348,A,A*51
$GPBOD,,T,,M,,*47
$PGRME,6.1,M,12.3,M,13.7,M*2C
$PGRMZ,1250,f,3*2D
$GPRTE,1,1,c,*37
$GPRMC,155350,A,3410.2517,N,08357.1845,W,50.4,213.7,071208,4.5,W,A*21
$GPRMB,A,,,,,,,,,,,,A,A*0B
$GPGGA,155350,3410.2517,N,08357.1845,W,1,06,1.8,380.4,M,-31.2,M,,*7C
$GPGSA,A,3,04,,08,11,17,,,,,27,28,,3.5,1.8,3.0*3B
$GPGSV,3,1,12,04,18,204,42,07,18,167,00,08,52,192,42,11,43,054,52*79
$GPGSV,3,2,12,17,54,283,42,19,00,061,00,20,16,114,41,25,03,162,00*79
$GPGSV,3,3,12,26,09,273,00,27,29,178,37,28,68,355,34,32,11,089,00*75
$GPGLL,3410.2517,N,08357.1845,W,155350,A,A*54
$GPBOD,,T,,M,,*47
$PGRME,6.1,M,12.3,M,13.7,M*2C
$PGRMZ,1248,f,3*24
$GPRTE,1,1,c,*37
$GPRMC,155352,A,3410.2289,N,08357.2032,W,49.3,214.7,071208,4.5,W,A*20
$GPRMB,A,,,,,,,,,,,,A,A*0B
$GPGGA,155352,3410.2289,N,08357.2032,W,1,06,1.7,379.6,M,-31.2,M,,*7E
$GPGSA,A,3,04,,08,11,17,,,,,27,28,,3.5,1.7,3.0*34
$GPGSV,3,1,12,04,18,204,42,07,18,167,00,08,52,192,41,11,43,054,52*7A
$GPGSV,3,2,12,17,54,283,43,19,00,061,00,20,16,114,41,25,03,162,00*78
$GPGSV,3,3,12,26,09,273,00,27,29,178,38,28,68,355,34,32,11,089,00*7A
$GPGLL,3410.2289,N,08357.2032,W,155352,A,A*5D
$GPBOD,,T,,M,,*47
$PGRME,6.1,M,12.3,M,13.7,M*2C
$PGRMZ,1245,f,3*29
$GPRTE,1,1,c,*37
$GPRMC,155354,A,3410.2074,N,08357.2230,W,48.4,218.7,071208,4.5,W,A*2C
$GPRMB,A,,,,,,,,,,,,A,A*0B
$GPGGA,155354,3410.2074,N,08357.2230,W,1,06,1.8,378.6,M,-31.2,M,,*76
$GPGSA,A,3,04,,08,11,17,,,,,27,28,,3.5,1.8,3.0*3B
$GPGSV,3,1,12,04,18,204,42,07,18,167,00,08,52,192,00,11,43,054,52*7F
$GPGSV,3,2,12,17,54,283,44,19,00,061,00,20,16,114,40,25,03,162,00*7E
$GPGSV,3,3,12,26,09,273,00,27,29,178,38,28,68,355,36,32,11,089,00*78
$GPGLL,3410.2074,N,08357.2230,W,155354,A,A*5B
$GPBOD,,T,,M,,*47
$PGRME,6.3,M,12.7,M,14.2,M*28
$PGRMZ,1242,f,3*2E
$GPRTE,1,1,c,*37
$GPRMC,155356,A,3410.1880,N,08357.2449,W,47.5,224.5,071208,4.5,W,A*25
$GPRMB,A,,,,,,,,,,,,A,A*0B
$GPGGA,155356,3410.1880,N,08357.2449,W,1,06,1.8,378.0,M,-31.2,M,,*7A
$GPGSA,A,3,04,,08,11,17,,,,,27,28,,3.9,1.8,3.5*32
$GPGSV,3,1,12,04,18,204,40,07,18,167,00,08,52,192,40,11,43,054,51*7A
$GPGSV,3,2,12,17,54,283,42,19,00,061,00,20,16,114,41,25,03,162,00*79
$GPGSV,3,3,12,26,09,273,00,27,29,178,41,28,68,355,37,32,11,089,00*77
$GPGLL,3410.1880,N,08357.2449,W,155356,A,A*51
$GPBOD,,T,,M,,*47
$PGRME,6.1,M,12.3,M,13.7,M*2C
$PGRMZ,1240,f,3*2C
$GPRTE,1,1,c,*37
$GPRMC,155358,A,3410.1709,N,08357.2694,W,48.0,231.8,071208,4.5,W,A*24
$GPRMB,A,,,,,,,,,,,,A,A*0B
$GPGGA,155358,3410.1709,N,08357.2694,W,1,06,1.9,378.1,M,-31.2,M,,*78
$GPGSA,A,3,04,,08,11,17,,,,,27,28,,2.2,1.9,1.0*3E
$GPGSV,3,1,12,04,18,204,38,07,18,167,00,08,52,192,41,11,43,054,50*75
$GPGSV,3,2,12,17,54,285,41,19,00,061,00,20,16,114,40,25,03,162,00*7D
$GPGSV,3,3,12,26,09,273,00,27,29,178,41,28,68,355,37,32,11,089,00*77
$GPGLL,3410.1709,N,08357.2694,W,155358,A,A*53
$GPBOD,,T,,M,,*47
$PGRME,6.1,M,12.3,M,13.7,M*2C
$PGRMZ,1241,f,3*2D
$GPRTE,1,1,c,*37
$GPRMC,155400,A,3410.1554,N,08357.2961,W,49.7,237.6,071208,4.5,W,A*2F
$GPRMB,A,,,,,,,,,,,,A,A*0B
$GPGGA,155400,3410.1554,N,08357.2961,W,1,06,2.1,378.4,M,-31.2,M,,*73
$GPGSA,A,3,04,,08,11,17,,,,,27,28,,2.4,2.1,1.0*33
$GPGSV,3,1,12,04,18,204,36,07,18,167,00,08,52,192,43,11,43,054,49*71
$GPGSV,3,2,12,17,54,285,39,19,00,061,00,20,16,114,38,25,03,162,00*7D
$GPGSV,3,3,12,26,09,273,00,27,29,178,39,28,68,355,36,32,11,089,00*79
$GPGLL,3410.1554,N,08357.2961,W,155400,A,A*56
$GPBOD,,T,,M,,*47
$PGRME,6.7,M,13.4,M,15.0,M*2D
$PGRMZ,1242,f,3*2E
$GPRTE,1,1,c,*37
$GPRMC,155402,A,3410.1406,N,08357.3243,W,50.0,238.2,071208,4.5,W,A*25
$GPRMB,A,,,,,,,,,,,,A,A*0B
$GPGGA,155402,3410.1406,N,08357.3243,W,1,06,3.1,378.3,M,-31.2,M,,*7B
$GPGSA,A,3,04,,08,11,17,,,,,27,28,,4.0,3.1,1.0*30
$GPGSV,3,1,12,04,18,204,35,07,18,167,00,08,52,192,44,11,43,054,49*75
$GPGSV,3,2,12,17,54,285,37,19,00,061,00,20,16,114,43,25,03,162,00*7F
$GPGSV,3,3,12,26,09,273,00,27,29,178,40,28,68,355,35,32,11,089,00*74
$GPGLL,3410.1406,N,08357.3243,W,155402,A,A*58
$GPBOD,,T,,M,,*47
$PGRME,6.8,M,15.4,M,17.0,M*26
$PGRMZ,1241,f,3*2D
$GPRTE,1,1,c,*37
$GPRMC,155404,A,3410.1259,N,08357.3528,W,50.0,238.2,071208,4.5,W,A*25
$GPRMB,A,,,,,,,,,,,,A,A*0B
$GPGGA,155404,3410.1259,N,08357.3528,W,1,06,3.1,378.4,M,-31.2,M,,*7C
$GPGSA,A,3,04,,08,11,17,,,,,27,28,,4.0,3.1,1.0*30
$GPGSV,3,1,12,04,18,204,00,07,18,167,00,08,52,192,45,11,43,054,49*72
$GPGSV,3,2,12,17,54,285,00,19,00,062,00,20,16,114,42,25,03,162,00*79
$GPGSV,3,3,12,26,09,273,00,27,29,178,40,28,68,355,00,32,11,089,00*72
$GPGLL,3410.1259,N,08357.3528,W,155404,A,A*58
$GPBOD,,T,,M,,*47
$PGRME,6.8,M,15.4,M,17.0,M*26
$PGRMZ,1242,f,3*2E
$GPRTE,1,1,c,*37
$GPRMC,155406,A,3410.1111,N,08357.3815,W,50.9,238.6,071208,4.5,W,A*26
$GPRMB,A,,,,,,,,,,,,A,A*0B
$GPGGA,155406,3410.1111,N,08357.3815,W,1,06,2.9,378.5,M,-31.2,M,,*7A
$GPGSA,A,3,04,,08,11,17,,,,,27,28,,3.1,2.9,1.0*3F
$GPGSV,3,1,12,04,18,204,00,07,18,167,00,08,52,192,46,11,43,054,48*70
$GPGSV,3,2,12,17,54,285,00,19,00,062,00,20,16,114,00,25,03,162,00*7F
$GPGSV,3,3,12,26,09,273,00,27,29,178,00,28,68,355,32,32,11,089,00*77
$GPGLL,3410.1111,N,08357.3815,W,155406,A,A*56
$GPBOD,,T,,M,,*47
$PGRME,7.3,M,15.4,M,17.2,M*2E
$PGRMZ,1242,f,3*2E
$GPRTE,1,1,c,*37
$GPRMC,155408,A,3410.0963,N,08357.4106,W,50.9,238.6,071208,4.5,W,A*28
$GPRMB,A,,,,,,,,,,,,A,A*0B
$GPGGA,155408,3410.0963,N,08357.4106,W,1,05,3.8,378.6,M,-31.2,M,,*74
$GPGSA,A,3,,,08,11,17,,,,,27,28,,4.0,3.8,1.0*3D
$GPGSV,3,1,12,04,18,204,00,07,18,167,00,08,52,192,45,11,43,054,48*73
$GPGSV,3,2,12,17,54,285,00,19,00,062,00,20,16,113,00,25,03,162,00*78
$GPGSV,3,3,12,26,09,273,00,27,29,178,37,28,68,355,00,32,11,089,00*72
$GPGLL,3410.0963,N,08357.4106,W,155408,A,A*58
$GPBOD,,T,,M,,*47
$PGRME,7.3,M,15.4,M,17.2,M*2E
$PGRMZ,1242,f,3*2E
$GPRTE,1,1,c,*37
$GPRMC,155410,A,3410.0815,N,08357.4397,W,50.9,238.6,071208,4.5,W,A*2B
$GPRMB,A,,,,,,,,,,,,A,A*0B
$GPGGA,155410,3410.0815,N,08357.4397,W,1,05,4.7,378.7,M,-31.2,M,,*7E
$GPGSA,A,3,,,08,11,17,,,,,27,28,,4.8,4.7,1.0*3D
$GPGSV,3,1,12,04,18,204,00,07,18,167,38,08,52,192,46,11,43,054,48*7B
$GPGSV,3,2,12,17,54,285,00,19,00,062,00,20,16,113,00,25,03,162,00*78
$GPGSV,3,3,12,26,09,273,00,27,29,178,37,28,68,355,00,32,11,089,00*72
$GPGLL,3410.0815,N,08357.4397,W,155410,A,A*5B
$GPBOD,,T,,M,,*47
$PGRME,7.3,M,15.4,M,17.2,M*2E
$PGRMZ,1242,f,3*2E
$GPRTE,1,1,c,*37
$GPRMC,155412,A,3410.0668,N,08357.4688,W,50.9,238.6,071208,4.5,W,A*26
$GPRMB,A,,,,,,,,,,,,A,A*0B
$GPGGA,155412,3410.0668,N,08357.4688,W,1,03,5.5,378.7,M,-31.2,M,,*76
$GPGSA,A,3,,,08,11,,,,,,,28,,5.6,5.5,1.0*32
$GPGSV,3,1,12,04,18,204,00,07,18,167,38,08,52,192,47,11,43,054,48*7A
$GPGSV,3,2,12,17,54,285,00,19,00,062,00,20,16,113,43,25,03,162,00*7F
$GPGSV,3,3,12,26,09,273,00,27,29,178,38,28,68,355,00,32,11,089,00*7D
$GPGLL,3410.0668,N,08357.4688,W,155412,A,A*56
$GPBOD,,T,,M,,*47
$PGRME,7.3,M,15.4,M,17.2,M*2E
$PGRMZ,1242,f,3*2E
$GPRTE,1,1,c,*37
$GPRMC,155414,A,3410.0520,N,08357.4979,W,50.9,238.6,071208,4.5,W,A*2E
$GPRMB,A,,,,,,,,,,,,A,A*0B
$GPGGA,155414,3410.0520,N,08357.4979,W,1,03,5.5,378.7,M,-31.2,M,,*7E
$GPGSA,A,3,,,08,11,,,,,,,28,,5.6,5.5,1.0*32
$GPGSV,3,1,12,04,18,204,00,07,18,167,37,08,52,192,47,11,43,054,48*75
$GPGSV,3,2,12,17,54,285,00,19,00,062,00,20,16,113,41,25,03,162,00*7D
$GPGSV,3,3,12,26,09,273,00,27,29,178,39,28,68,355,00,32,11,089,00*7C
$GPGLL,3410.0520,N,08357.4979,W,155414,A,A*5E
$GPBOD,,T,,M,,*47
$PGRME,7.3,M,15.4,M,17.2,M*2E
$PGRMZ,1242,f,3*2E
$GPRTE,1,1,c,*37
$GPRMC,155416,A,3410.0376,N,08357.5265,W,47.8,238.7,071208,4.5,W,A*28
$GPRMB,A,,,,,,,,,,,,A,A*0B
$GPGGA,155416,3410.0376,N,08357.5265,W,1,05,2.1,378.6,M,-31.2,M,,*7A
$GPGSA,A,3,,,08,11,17,,,,,27,28,,3.3,2.1,1.6*37
$GPGSV,3,1,12,04,18,204,00,07,18,167,00,08,52,192,48,11,43,054,47*71
$GPGSV,3,2,12,17,54,285,32,19,00,062,00,20,16,113,00,25,03,162,00*79
$GPGSV,3,3,12,26,09,273,00,27,29,178,39,28,68,355,35,32,11,089,00*7A
$GPGLL,3410.0376,N,08357.5265,W,155416,A,A*5E
$GPBOD,,T,,M,,*47
$PGRME,7.1,M,15.4,M,18.0,M*21
$PGRMZ,1242,f,3*2E
$GPRTE,1,1,c,*37
$GPRMC,155418,A,3410.0237,N,08357.5533,W,46.1,235.5,071208,4.5,W,A*21
$GPRMB,A,,,,,,,,,,,,A,A*0B
$GPGGA,155418,3410.0237,N,08357.5533,W,1,05,1.8,378.7,M,-31.2,M,,*7F
$GPGSA,A,3,,,08,11,17,,,,,27,28,,2.0,1.8,1.0*39
$GPGSV,3,1,12,04,18,204,00,07,18,167,00,08,52,192,47,11,43,054,47*7E
$GPGSV,3,2,12,17,54,285,36,19,00,062,00,20,16,113,00,25,03,162,00*7D
$GPGSV,3,3,12,26,09,273,00,27,29,178,46,28,68,355,35,32,11,089,00*72
$GPGLL,3410.0237,N,08357.5533,W,155418,A,A*50
$GPBOD,,T,,M,,*47
$PGRME,7.0,M,15.4,M,16.9,M*27
$PGRMZ,1242,f,3*2E
$GPRTE,1,1,c,*37
$GPRMC,155420,A,3410.0051,N,08357.5733,W,45.0,218.1,071208,4.5,W,A*23
$GPRMB,A,,,,,,,,,,,,A,A*0B
$GPGGA,155420,3410.0051,N,08357.5733,W,1,05,1.8,378.7,M,-31.2,M,,*74
$GPGSA,A,3,,,08,11,17,,,,,27,28,,2.0,1.8,1.0*39
$GPGSV,3,1,12,04,18,204,00,07,18,167,00,08,52,192,45,11,43,054,49*72
$GPGSV,3,2,12,17,54,285,39,19,00,062,00,20,16,113,39,25,03,162,00*78
$GPGSV,3,3,12,26,09,273,00,27,29,178,45,28,68,355,00,32,11,089,00*77
$GPGLL,3410.0051,N,08357.5733,W,155420,A,A*5B
$GPBOD,,T,,M,,*47
$PGRME,7.1,M,17.2,M,18.7,M*22
$PGRMZ,1242,f,3*2E
$GPRTE,1,1,c,*37
$GPRMC,155422,A,3409.9841,N,08357.5901,W,45.7,208.9,071208,4.5,W,A*28
$GPRMB,A,,,,,,,,,,,,A,A*0B
$GPGGA,155422,3409.9841,N,08357.5901,W,1,06,4.9,378.5,M,-31.2,M,,*74
$GPGSA,A,3,04,,08,11,17,,,,,27,28,,5.2,4.9,1.0*3C
$GPGSV,3,1,12,04,18,204,39,07,18,167,00,08,52,192,46,11,43,054,49*7B
$GPGSV,3,2,12,17,54,285,00,19,00,062,00,20,16,113,00,25,03,162,00*78
$GPGSV,3,3,12,26,09,273,00,27,29,178,43,28,68,355,00,32,11,089,00*71
$GPGLL,3409.9841,N,08357.5901,W,155422,A,A*5E
$GPBOD,,T,,M,,*47
$PGRME,9.9,M,14.4,M,20.6,M*2B
$PGRMZ,1242,f,3*2E
$GPRTE,1,1,c,*37
$GPRMC,155424,A,3409.9601,N,08357.6025,W,49.0,197.7,071208,4.5,W,A*28
$GPRMB,A,,,,,,,,,,,,A,A*0B
$GPGGA,155424,3409.9601,N,08357.6025,W,1,06,3.4,377.5,M,-31.2,M,,*71
$GPGSA,A,3,04,,08,11,17,,,,,27,28,,4.5,3.4,1.4*34
$GPGSV,3,1,12,04,18,204,40,07,18,167,36,08,52,192,47,11,43,054,48*70
$GPGSV,3,2,12,17,54,285,00,19,00,062,00,20,16,113,00,25,03,162,00*78
$GPGSV,3,3,12,26,09,273,00,27,29,178,41,28,68,355,34,32,11,089,00*74
$GPGLL,3409.9601,N,08357.6025,W,155424,A,A*5E
$GPBOD,,T,,M,,*47
$PGRME,9.9,M,13.3,M,16.8,M*20
$PGRMZ,1238,f,3*23
$GPRTE,1,1,c,*37
$GPRMC,155426,A,3409.9330,N,08357.6124,W,51.4,196.9,071208,4.5,W,A*2F
$GPRMB,A,,,,,,,,,,,,A,A*0B
$GPGGA,155426,3409.9330,N,08357.6124,W,1,06,2.8,376.7,M,-31.2,M,,*7A
$GPGSA,A,3,04,,08,11,17,,,,,27,28,,4.0,2.8,1.6*3E
$GPGSV,3,1,12,04,18,204,40,07,18,167,35,08,52,192,47,11,43,054,48*73
$GPGSV,3,2,12,17,54,285,42,19,00,062,00,20,16,113,00,25,03,162,00*7E
$GPGSV,3,3,12,26,09,273,00,27,29,178,41,28,68,355,36,32,11,089,00*76
$GPGLL,3409.9330,N,08357.6124,W,155426,A,A*5B
$GPBOD,,T,,M,,*47
$PGRME,6.6,M,12.4,M,14.1,M*2D
$PGRMZ,1236,f,3*2D
$GPRTE,1,1,c,*37
$GPRMC,155428,A,3409.9051,N,08357.6227,W,52.6,197.2,071208,4.5,W,A*2E
$GPRMB,A,,,,,,,,,,,,A,A*0B
$GPGGA,155428,3409.9051,N,08357.6227,W,1,06,2.8,376.5,M,-31.2,M,,*72
$GPGSA,A,3,04,,08,11,17,,,,,27,28,,4.0,2.8,1.6*3E
$GPGSV,3,1,12,04,18,204,41,07,18,167,35,08,52,192,47,11,43,054,47*7D
$GPGSV,3,2,12,17,54,285,41,19,00,062,00,20,16,113,00,25,02,162,00*7C
$GPGSV,3,3,12,26,09,273,00,27,29,178,41,28,68,355,38,32,11,089,38*73
$GPGLL,3409.9051,N,08357.6227,W,155428,A,A*51
$GPBOD,,T,,M,,*47
$PGRME,6.6,M,12.4,M,14.1,M*2D
$PGRMZ,1235,f,3*2E
$GPRTE,1,1,c,*37
$GPRMC,155430,A,3409.8770,N,08357.6330,W,52.8,197.2,071208,4.5,W,A*2B
$GPRMB,A,,,,,,,,,,,,A,A*0B
$GPGGA,155430,3409.8770,N,08357.6330,W,1,06,2.8,376.3,M,-31.2,M,,*7F
$GPGSA,A,3,04,,08,11,17,,,,,27,28,,4.0,2.8,1.9*31
$GPGSV,3,1,12,04,18,204,41,07,18,167,00,08,52,192,47,11,43,054,47*7B
$GPGSV,3,2,12,17,54,285,40,19,00,062,00,20,16,113,00,25,02,162,00*7D
$GPGSV,3,3,12,26,09,272,00,27,29,178,41,28,68,355,39,32,11,089,36*7D
$GPGLL,3409.8770,N,08357.6330,W,155430,A,A*5A
$GPBOD,,T,,M,,*47
$PGRME,6.1,M,12.3,M,13.8,M*23
$PGRMZ,1234,f,3*2F
$GPRTE,1,1,c,*37
$GPRMC,155432,A,3409.8489,N,08357.6434,W,52.9,197.2,071208,4.5,W,A*2E
$GPRMB,A,,,,,,,,,,,,A,A*0B
$GPGGA,155432,3409.8489,N,08357.6434,W,1,06,2.8,376.1,M,-31.2,M,,*79
$GPGSA,A,3,04,,08,11,17,,,,,27,28,,4.0,2.8,1.9*31
$GPGSV,3,1,12,04,18,204,41,07,18,167,00,08,52,192,47,11,43,054,47*7B
$GPGSV,3,2,12,17,54,285,40,19,00,062,00,20,16,113,00,25,02,162,00*7D
$GPGSV,3,3,12,26,09,272,00,27,29,178,41,28,68,355,39,32,11,089,36*7D
$GPGLL,3409.8489,N,08357.6434,W,155432,A,A*5E
$GPBOD,,T,,M,,*47
$PGRME,6.1,M,12.3,M,13.8,M*23
$PGRMZ,1234,f,3*2F
$GPRTE,1,1,c,*37
$GPRMC,155434,A,3409.8206,N,08357.6537,W,53.1,196.9,071208,4.5,W,A*28
$GPRMB,A,,,,,,,,,,,,A,A*0B
$GPGGA,155434,3409.8206,N,08357.6537,W,1,06,1.7,375.5,M,-31.2,M,,*77
$GPGSA,A,3,04,,08,11,17,,,,,27,28,,3.4,1.7,2.0*34
$GPGSV,3,1,12,04,18,204,41,07,18,167,00,08,52,192,48,11,43,054,46*75
$GPGSV,3,2,12,17,54,285,41,19,00,062,00,20,16,113,00,25,02,162,00*7C
$GPGSV,3,3,12,26,09,272,00,27,28,177,40,28,68,355,39,32,11,089,00*77
$GPGLL,3409.8206,N,08357.6537,W,155434,A,A*5B
$GPBOD,,T,,M,,*47
$PGRME,6.1,M,12.3,M,13.8,M*23
$PGRMZ,1232,f,3*29
$GPRTE,1,1,c,*37
$GPRMC,155436,A,3409.7925,N,08357.6640,W,52.5,197.0,071208,4.5,W,A*21
$GPRMB,A,,,,,,,,,,,,A,A*0B
$GPGGA,155436,3409.7925,N,08357.6640,W,1,06,2.4,374.0,M,-31.2,M,,*77
$GPGSA,A,3,04,,08,11,17,,,,,27,28,,4.0,2.4,2.2*35
$GPGSV,3,1,12,04,18,204,42,07,18,167,00,08,52,192,48,11,43,054,46*76
$GPGSV,3,2,12,17,54,285,41,19,00,062,00,20,16,113,00,25,02,162,00*7C
$GPGSV,3,3,12,26,09,272,00,27,28,177,40,28,68,355,37,32,11,089,00*79
$GPGLL,3409.7925,N,08357.6640,W,155436,A,A*5F
$GPBOD,,T,,M,,*47
$PGRME,9.0,M,12.5,M,16.2,M*24
$PGRMZ,1227,f,3*2D
$GPRTE,1,1,c,*37
$GPRMC,155438,A,3409.7646,N,08357.6743,W,52.5,197.0,071208,4.5,W,A*27
$GPRMB,A,,,,,,,,,,,,A,A*0B
$GPGGA,155438,3409.7646,N,08357.6743,W,1,06,1.7,371.7,M,-31.2,M,,*73
$GPGSA,A,3,04,,08,11,17,,,,,27,28,,3.5,1.7,2.4*31
$GPGSV,3,1,12,04,18,204,42,07,18,167,00,08,52,192,48,11,43,054,46*76
$GPGSV,3,2,12,17,54,285,41,19,00,062,00,20,16,113,00,25,02,162,00*7C
$GPGSV,3,3,12,26,09,272,00,27,28,177,38,28,68,356,00,32,11,089,00*71
$GPGLL,3409.7646,N,08357.6743,W,155438,A,A*59
$GPBOD,,T,,M,,*47
$PGRME,6.2,M,12.8,M,15.2,M*27
$PGRMZ,1220,f,3*2A
$GPRTE,1,1,c,*37
$GPRMC,155440,A,3409.7367,N,08357.6844,W,52.5,197.0,071208,4.5,W,A*26
$GPRMB,A,,,,,,,,,,,,A,A*0B
$GPGGA,155440,3409.7367,N,08357.6844,W,1,06,1.7,369.8,M,-31.2,M,,*74
$GPGSA,A,3,04,,08,11,17,,,,,27,28,,3.5,1.7,2.4*31
$GPGSV,3,1,12,04,18,204,41,07,18,167,00,08,52,192,48,11,43,054,45*76
$GPGSV,3,2,12,17,54,285,44,19,00,062,00,20,16,113,00,25,02,162,00*79
$GPGSV,3,3,12,26,09,272,00,27,28,177,37,28,68,356,00,32,11,089,00*7E
$GPGLL,3409.7367,N,08357.6844,W,155440,A,A*58
$GPBOD,,T,,M,,*47
$PGRME,6.2,M,12.8,M,15.2,M*27
$PGRMZ,1213,f,3*2A
$GPRTE,1,1,c,*37
$GPRMC,155442,A,3409.7084,N,08357.6949,W,53.1,197.5,071208,4.5,W,A*26
$GPRMB,A,,,,,,,,,,,,A,A*0B
$GPGGA,155442,3409.7084,N,08357.6949,W,1,06,1.8,365.2,M,-31.2,M,,*7D
$GPGSA,A,3,04,,08,11,17,,,,,27,28,,3.5,1.8,2.5*3F
$GPGSV,3,1,12,04,18,204,41,07,18,167,00,08,52,192,48,11,43,054,44*77
$GPGSV,3,2,12,17,54,285,45,19,00,062,00,20,16,113,00,25,02,162,00*78
$GPGSV,3,3,12,26,09,272,00,27,28,177,36,28,68,356,00,32,11,087,00*71
$GPGLL,3409.7084,N,08357.6949,W,155442,A,A*58
$GPBOD,,T,,M,,*47
$PGRME,6.2,M,13.0,M,15.2,M*2E
$PGRMZ,1198,f,3*2A
$GPRTE,1,1,c,*37
$GPRMC,155444,A,3409.6807,N,08357.7079,W,53.6,201.4,071208,4.5,W,A*23
$GPRMB,A,,,,,,,,,,,,A,A*0B
$GPGGA,155444,3409.6807,N,08357.7079,W,1,06,4.2,361.4,M,-31.2,M,,*7F
$GPGSA,A,3,04,,08,11,17,,,,,27,28,,5.8,4.2,1.0*3D
$GPGSV,3,1,12,04,18,204,41,07,18,167,39,08,52,192,47,11,43,054,46*70
$GPGSV,3,2,12,17,54,285,43,19,00,062,00,20,16,113,00,25,02,162,00*7E
$GPGSV,3,3,12,26,09,272,00,27,28,177,00,28,68,356,00,32,11,087,00*74
$GPGLL,3409.6807,N,08357.7079,W,155444,A,A*57
$GPBOD,,T,,M,,*47
$PGRME,6.2,M,13.0,M,15.2,M*2E
$PGRMZ,1186,f,3*25
$GPRTE,1,1,c,*37
$GPRMC,155446,A,3409.6544,N,08357.7246,W,53.6,214.6,071208,4.5,W,A*23
$GPRMB,A,,,,,,,,,,,,A,A*0B
$GPGGA,155446,3409.6544,N,08357.7246,W,1,05,4.9,358.4,M,-31.2,M,,*7B
$GPGSA,A,3,04,,08,11,17,,,,,27,,,6.3,4.9,1.0*34
$GPGSV,3,1,12,04,18,204,41,07,18,167,00,08,52,192,45,11,43,054,48*76
$GPGSV,3,2,12,17,54,285,42,19,00,062,00,20,16,113,33,25,02,162,00*7F
$GPGSV,3,3,12,26,09,272,00,27,28,177,39,28,68,356,00,32,11,087,36*7B
$GPGLL,3409.6544,N,08357.7246,W,155446,A,A*51
$GPBOD,,T,,M,,*47
$PGRME,8.3,M,13.9,M,18.0,M*27
$PGRMZ,1176,f,3*2A
$GPRTE,1,1,c,*37
$GPRMC,155448,A,3409.6306,N,08357.7466,W,54.2,217.4,071208,4.5,W,A*2B
$GPRMB,A,,,,,,,,,,,,A,A*0B
$GPGGA,155448,3409.6306,N,08357.7466,W,1,06,2.1,357.7,M,-31.2,M,,*70
$GPGSA,A,3,04,,08,11,17,,,,,27,28,,4.4,2.1,1.6*33
$GPGSV,3,1,12,04,18,204,42,07,18,167,00,08,52,192,00,11,43,054,50*7D
$GPGSV,3,2,12,17,54,285,42,19,00,062,00,20,16,113,43,25,02,162,00*78
$GPGSV,3,3,12,26,09,272,00,27,28,177,39,28,68,356,38,32,11,087,34*72
$GPGLL,3409.6306,N,08357.7466,W,155448,A,A*5B
$GPBOD,,T,,M,,*47
$PGRME,8.0,M,14.3,M,18.0,M*29
$PGRMZ,1174,f,3*28
$GPRTE,1,1,c,*37
$GPRMC,155450,A,3409.6078,N,08357.7696,W,53.5,219.8,071208,4.5,W,A*27
$GPRMB,A,,,,,,,,,,,,A,A*0B
$GPGGA,155450,3409.6078,N,08357.7696,W,1,06,4.5,357.5,M,-31.2,M,,*7E
$GPGSA,A,3,04,,08,11,17,,,,,27,28,,5.3,4.5,1.0*31
$GPGSV,3,1,12,04,18,204,43,07,18,167,00,08,52,192,38,11,43,054,50*77
$GPGSV,3,2,12,17,54,285,40,19,00,062,00,20,16,113,41,25,02,162,00*78
$GPGSV,3,3,12,26,09,272,00,27,28,177,37,28,68,356,37,32,11,087,35*72
$GPGLL,3409.6078,N,08357.7696,W,155450,A,A*55
$GPBOD,,T,,M,,*47
$PGRME,8.4,M,14.7,M,18.4,M*2D
$PGRMZ,1173,f,3*2F
$GPRTE,1,1,c,*37
$GPRMC,155452,A,3409.5850,N,08357.7924,W,53.2,219.8,071208,4.5,W,A*25
$GPRMB,A,,,,,,,,,,,,A,A*0B
$GPGGA,155452,3409.5850,N,08357.7924,W,1,06,4.1,357.4,M,-31.2,M,,*7E
$GPGSA,A,3,04,,08,11,17,,,,,27,28,,5.5,4.1,1.0*33
$GPGSV,3,1,12,04,18,204,44,07,18,167,38,08,52,192,38,11,43,054,50*7B
$GPGSV,3,2,12,17,54,285,39,19,00,062,00,20,16,113,00,25,02,162,00*73
$GPGSV,3,3,12,26,09,272,00,27,28,177,35,28,68,356,36,32,11,087,00*77
$GPGLL,3409.5850,N,08357.7924,W,155452,A,A*50
$GPBOD,,T,,M,,*47
$PGRME,6.2,M,12.3,M,13.8,M*20
$PGRMZ,1173,f,3*2F
$GPRTE,1,1,c,*37
$GPRMC,155454,A,3409.5625,N,08357.8147,W,51.7,219.2,071208,4.5,W,A*20
$GPRMB,A,,,,,,,,,,,,A,A*0B
$GPGGA,155454,3409.5625,N,08357.8147,W,1,06,1.9,357.4,M,-31.2,M,,*7B
$GPGSA,A,3,04,,08,11,17,,,,,27,28,,2.1,1.9,1.0*3D
$GPGSV,3,1,12,04,18,204,44,07,18,167,39,08,52,192,39,11,43,054,51*7A
$GPGSV,3,2,12,17,54,285,42,19,00,062,00,20,16,113,40,25,02,162,00*7B
$GPGSV,3,3,12,26,09,272,00,27,28,177,34,28,68,356,36,32,11,087,41*73
$GPGLL,3409.5625,N,08357.8147,W,155454,A,A*58
$GPBOD,,T,,M,,*47
$PGRME,6.2,M,12.3,M,13.9,M*21
$PGRMZ,1173,f,3*2F
$GPRTE,1,1,c,*37
$GPRMC,155456,A,3409.5404,N,08357.8368,W,51.4,220.4,071208,4.5,W,A*23
$GPRMB,A,,,,,,,,,,,,A,A*0B
$GPGGA,155456,3409.5404,N,08357.8368,W,1,06,2.0,357.7,M,-31.2,M,,*7E
$GPGSA,A,3,04,,08,11,17,,,,,27,28,,2.2,2.0,1.0*34
$GPGSV,3,1,12,04,18,204,45,07,18,167,39,08,52,192,39,11,43,054,51*7B
$GPGSV,3,2,12,17,54,285,43,19,00,062,00,20,16,113,41,25,02,162,00*7B
$GPGSV,3,3,12,26,09,272,00,27,28,177,00,28,68,356,36,32,11,087,41*74
$GPGLL,3409.5404,N,08357.8368,W,155456,A,A*54
$GPBOD,,T,,M,,*47
$PGRME,6.2,M,12.3,M,13.9,M*21
$PGRMZ,1173,f,3*2F
$GPRTE,1,1,c,*37
$GPRMC,155458,A,3409.5182,N,08357.8587,W,52.0,218.0,071208,4.5,W,A*29
$GPRMB,A,,,,,,,,,,,,A,A*0B
$GPGGA,155458,3409.5182,N,08357.8587,W,1,06,1.9,358.1,M,-31.2,M,,*7F
$GPGSA,A,3,04,,08,11,17,,,,,27,28,,2.3,1.9,1.2*3D
$GPGSV,3,1,12,04,18,204,45,07,18,167,38,08,52,192,38,11,43,054,51*7B
$GPGSV,3,2,12,17,54,285,41,19,00,062,00,20,16,113,42,25,02,162,00*7A
$GPGSV,3,3,12,26,09,272,00,27,28,177,00,28,68,356,36,32,11,087,41*74
$GPGLL,3409.5182,N,08357.8587,W,155458,A,A*56
$GPBOD,,T,,M,,*47
$PGRME,6.3,M,12.3,M,13.9,M*20
$PGRMZ,1175,f,3*29
$GPRTE,1,1,c,*37
$GPRMC,155500,A,3409.4953,N,08357.8802,W,52.3,218.0,071208,4.5,W,A*23
$GPRMB,A,,,,,,,,,,,,A,A*0B
$GPGGA,155500,3409.4953,N,08357.8802,W,1,06,1.8,359.0,M,-31.2,M,,*77
$GPGSA,A,3,04,,08,11,17,,,,,27,28,,2.0,1.8,1.0*3D
$GPGSV,3,1,12,04,18,204,44,07,18,167,00,08,52,192,37,11,43,054,51*7E
$GPGSV,3,2,12,17,54,285,42,19,00,062,00,20,16,113,42,25,02,162,00*79
$GPGSV,3,3,12,26,09,272,00,27,28,177,38,28,68,356,37,32,11,087,41*7E
$GPGLL,3409.4953,N,08357.8802,W,155500,A,A*5F
$GPBOD,,T,,M,,*47
$PGRME,6.2,M,12.3,M,13.8,M*20
$PGRMZ,1178,f,3*24
$GPRTE,1,1,c,*37
$GPRMC,155502,A,3409.4721,N,08357.9013,W,52.2,217.1,071208,4.5,W,A*2C
$GPRMB,A,,,,,,,,,,,,A,A*0B
$GPGGA,155502,3409.4721,N,08357.9013,W,1,06,1.8,360.1,M,-31.2,M,,*7C
$GPGSA,A,3,04,,08,11,17,,,,,27,28,,2.5,1.8,1.6*3E
$GPGSV,3,1,12,04,18,204,44,07,18,167,00,08,52,192,36,11,43,054,51*7F
$GPGSV,3,2,12,17,54,285,43,19,00,062,00,20,16,113,40,25,02,162,00*7A
$GPGSV,3,3,12,26,09,272,00,27,28,177,38,28,68,356,36,32,11,087,00*7A
$GPGLL,3409.4721,N,08357.9013,W,155502,A,A*5F
$GPBOD,,T,,M,,*47
$PGRME,6.4,M,12.7,M,14.2,M*2F
$PGRMZ,1182,f,3*21
$GPRTE,1,1,c,*37
$GPRMC,155504,A,3409.4490,N,08357.9224,W,52.1,217.6,071208,4.5,W,A*21
$GPRMB,A,,,,,,,,,,,,A,A*0B
$GPGGA,155504,3409.4490,N,08357.9224,W,1,06,2.5,360.8,M,-31.2,M,,*72
$GPGSA,A,3,04,,08,11,17,,,,,27,28,,3.3,2.5,1.0*31
$GPGSV,3,1,12,04,18,204,43,07,18,167,00,08,52,192,35,11,43,054,50*7A
$GPGSV,3,2,12,17,54,285,41,19,00,062,00,20,16,113,38,25,02,162,00*77
$GPGSV,3,3,12,26,09,272,00,27,28,177,40,28,68,356,00,32,11,087,00*70
$GPGLL,3409.4490,N,08357.9224,W,155504,A,A*56
$GPBOD,,T,,M,,*47
$PGRME,9.7,M,12.7,M,17.0,M*22
$PGRMZ,1184,f,3*27
$GPRTE,1,1,c,*37
$GPRMC,155506,A,3409.4260,N,08357.9439,W,52.2,217.6,071208,4.5,W,A*23
$GPRMB,A,,,,,,,,,,,,A,A*0B
$GPGGA,155506,3409.4260,N,08357.9439,W,1,06,1.7,361.4,M,-31.2,M,,*7F
$GPGSA,A,3,04,,08,11,17,,,,,27,28,,3.4,1.7,1.4*33
$GPGSV,3,1,12,04,18,204,40,07,18,167,00,08,52,192,35,11,43,054,49*71
$GPGSV,3,2,12,17,54,285,37,19,00,062,00,20,16,113,37,25,02,162,00*79
$GPGSV,3,3,12,26,09,272,00,27,28,177,41,28,68,356,35,32,11,087,00*77
$GPGLL,3409.4260,N,08357.9439,W,155506,A,A*57
$GPBOD,,T,,M,,*47
$PGRME,6.2,M,12.3,M,13.8,M*20
$PGRMZ,1186,f,3*25
$GPRTE,1,1,c,*37
$GPRMC,155508,A,3409.4031,N,08357.9653,W,52.1,217.4,071208,4.5,W,A*24
$GPRMB,A,,,,,,,,,,,,A,A*0B
$GPGGA,155508,3409.4031,N,08357.9653,W,1,06,2.0,361.6,M,-31.2,M,,*7F
$GPGSA,A,3,04,,08,11,17,,,,,27,28,,3.1,2.0,1.3*35
$GPGSV,3,1,12,04,19,204,39,07,18,167,00,08,52,192,34,11,43,054,49*7F
$GPGSV,3,2,12,17,54,285,36,19,00,062,00,20,16,113,00,25,02,162,00*7C
$GPGSV,3,3,12,26,09,272,00,27,28,177,41,28,68,356,36,32,11,087,00*74
$GPGLL,3409.4031,N,08357.9653,W,155508,A,A*51
$GPBOD,,T,,M,,*47
$PGRME,7.2,M,13.0,M,14.9,M*25
$PGRMZ,1186,f,3*25
$GPRTE,1,1,c,*37
$GPRMC,155510,A,3409.3799,N,08357.9863,W,52.2,217.3,071208,4.5,W,A*26
$GPRMB,A,,,,,,,,,,,,A,A*0B
$GPGGA,155510,3409.3799,N,08357.9863,W,1,06,1.9,362.0,M,-31.2,M,,*76
$GPGSA,A,3,04,,08,11,17,,,,,27,28,,2.1,1.9,1.0*3D
$GPGSV,3,1,12,04,19,204,41,07,18,167,00,08,52,192,00,11,43,054,50*7F
$GPGSV,3,2,12,17,54,285,41,19,00,062,00,20,16,113,00,25,02,162,00*7C
$GPGSV,3,3,12,26,09,272,00,27,28,177,40,28,68,356,36,32,11,087,00*75
$GPGLL,3409.3799,N,08357.9863,W,155510,A,A*57
$GPBOD,,T,,M,,*47
$PGRME,7.3,M,13.3,M,15.2,M*2D
$PGRMZ,1188,f,3*2B
$GPRTE,1,1,c,*37
$GPRMC,155512,A,3409.3565,N,08358.0075,W,52.6,217.2,071208,4.5,W,A*29
$GPRMB,A,,,,,,,,,,,,A,A*0B
$GPGGA,155512,3409.3565,N,08358.0075,W,1,06,1.9,362.6,M,-31.2,M,,*7A
$GPGSA,A,3,04,,08,11,17,,,,,27,28,,2.1,1.9,1.0*3D
$GPGSV,3,1,12,04,19,204,42,07,18,167,00,08,52,192,00,11,43,054,50*7C
$GPGSV,3,2,12,17,54,285,42,19,00,062,00,20,16,113,38,25,02,162,00*74
$GPGSV,3,3,12,26,09,272,00,27,28,177,40,28,68,356,36,32,11,087,00*75
$GPGLL,3409.3565,N,08358.0075,W,155512,A,A*5D
$GPBOD,,T,,M,,*47
$PGRME,7.3,M,13.3,M,15.2,M*2D
$PGRMZ,1190,f,3*22
$GPRTE,1,1,c,*37
$GPRMC,155514,A,3409.3330,N,08358.0293,W,53.6,218.0,071208,4.5,W,A*2F
$GPRMB,A,,,,,,,,,,,,A,A*0B
$GPGGA,155514,3409.3330,N,08358.0293,W,1,06,2.4,362.6,M,-31.2,M,,*7E
$GPGSA,A,3,04,,08,11,17,,,,,27,28,,2.9,2.4,1.0*3B
$GPGSV,3,1,12,04,19,204,43,07,18,167,00,08,52,192,00,11,43,054,51*7C
$GPGSV,3,2,12,17,54,285,42,19,00,062,00,20,16,113,39,25,02,162,00*75
$GPGSV,3,3,12,26,09,272,00,27,28,177,40,28,68,356,36,32,11,087,00*75
$GPGLL,3409.3330,N,08358.0293,W,155514,A,A*57
$GPBOD,,T,,M,,*47
$PGRME,7.3,M,13.3,M,15.2,M*2D
$PGRMZ,1190,f,3*22
$GPRTE,1,1,c,*37
$GPRMC,155516,A,3409.3093,N,08358.0515,W,54.3,218.2,071208,4.5,W,A*2E
$GPRMB,A,,,,,,,,,,,,A,A*0B
$GPGGA,155516,3409.3093,N,08358.0515,W,1,06,2.7,362.6,M,-31.2,M,,*7C
$GPGSA,A,3,04,,08,11,17,,,,,27,28,,3.5,2.7,1.0*35
$GPGSV,3,1,12,04,19,204,43,07,18,167,00,08,52,192,00,11,43,054,51*7C
$GPGSV,3,2,12,17,54,285,42,19,00,062,00,20,16,113,40,25,02,162,00*7B
$GPGSV,3,3,12,26,09,272,00,27,28,177,40,28,68,356,36,32,11,087,37*71
$GPGLL,3409.3093,N,08358.0515,W,155516,A,A*56
$GPBOD,,T,,M,,*47
$PGRME,7.4,M,13.6,M,15.5,M*28
$PGRMZ,1190,f,3*22
$GPRTE,1,1,c,*37
$GPRMC,155518,A,3409.2855,N,08358.0739,W,54.2,218.0,071208,4.5,W,A*2C
$GPRMB,A,,,,,,,,,,,,A,A*0B
$GPGGA,155518,3409.2855,N,08358.0739,W,1,05,2.1,362.5,M,-31.2,M,,*7B
$GPGSA,A,3,04,,,11,17,,,,,27,28,,3.7,2.1,1.5*3C
$GPGSV,3,1,12,04,19,204,43,07,18,167,00,08,52,192,00,11,43,053,51*7B
$GPGSV,3,2,12,17,54,285,40,19,00,062,00,20,16,113,39,25,02,162,00*77
$GPGSV,3,3,12,26,09,272,00,27,28,177,41,28,68,356,36,32,11,087,00*74
$GPGLL,3409.2855,N,08358.0739,W,155518,A,A*57
$GPBOD,,T,,M,,*47
$PGRME,7.4,M,13.9,M,15.8,M*2A
$PGRMZ,1189,f,3*2A
$GPRTE,1,1,c,*37
$GPRMC,155520,A,3409.2617,N,08358.0961,W,53.8,218.0,071208,4.5,W,A*21
$GPRMB,A,,,,,,,,,,,,A,A*0B
$GPGGA,155520,3409.2617,N,08358.0961,W,1,05,2.1,362.4,M,-31.2,M,,*7A
$GPGSA,A,3,04,,,11,17,,,,,27,28,,3.9,2.1,2.0*34
$GPGSV,3,1,12,04,19,204,44,07,18,167,00,08,52,192,00,11,43,053,51*7C
$GPGSV,3,2,12,17,54,285,38,19,00,062,00,20,16,113,37,25,02,162,00*76
$GPGSV,3,3,12,26,09,272,00,27,28,177,41,28,68,356,36,32,11,087,00*74
$GPGLL,3409.2617,N,08358.0961,W,155520,A,A*57
$GPBOD,,T,,M,,*47
$PGRME,8.0,M,14.5,M,16.6,M*27
$PGRMZ,1189,f,3*2A
$GPRTE,1,1,c,*37
$GPRMC,155522,A,3409.2388,N,08358.1178,W,52.0,218.3,071208,4.5,W,A*2B
$GPRMB,A,,,,,,,,,,,,A,A*0B
$GPGGA,155522,3409.2388,N,08358.1178,W,1,05,2.7,362.1,M,-31.2,M,,*79
$GPGSA,A,3,04,,,11,17,,,,,27,28,,3.6,2.7,1.0*3E
$GPGSV,3,1,12,04,19,204,44,07,18,167,00,08,52,192,00,11,43,053,51*7C
$GPGSV,3,2,12,17,54,285,37,19,00,062,00,20,16,113,36,25,02,162,00*78
$GPGSV,3,3,12,26,09,272,00,27,28,177,41,28,68,356,36,32,11,087,00*74
$GPGLL,3409.2388,N,08358.1178,W,155522,A,A*57
$GPBOD,,T,,M,,*47
$PGRME,8.4,M,14.9,M,17.1,M*29
$PGRMZ,1188,f,3*2B
$GPRTE,1,1,c,*37
$GPRMC,155524,A,3409.2164,N,08358.1391,W,50.8,218.4,071208,4.5,W,A*25
$GPRMB,A,,,,,,,,,,,,A,A*0B
$GPGGA,155524,3409.2164,N,08358.1391,W,1,05,3.2,361.9,M,-31.2,M,,*75
$GPGSA,A,3,04,,,11,17,,,,,27,28,,4.1,3.2,1.0*3A
$GPGSV,3,1,12,04,19,204,43,07,18,167,00,08,51,192,00,11,43,053,51*78
$GPGSV,3,2,12,17,54,285,37,19,00,062,00,20,16,113,35,25,02,162,00*7B
$GPGSV,3,3,12,26,09,272,00,27,28,177,40,28,68,356,37,32,11,087,00*74
$GPGLL,3409.2164,N,08358.1391,W,155524,A,A*54
$GPBOD,,T,,M,,*47
$PGRME,8.0,M,15.3,M,17.7,M*20
$PGRMZ,1187,f,3*24
$GPRTE,1,1,c,*37
$GPRMC,155526,A,3409.1946,N,08358.1600,W,50.0,218.4,071208,4.5,W,A*29
$GPRMB,A,,,,,,,,,,,,A,A*0B
$GPGGA,155526,3409.1946,N,08358.1600,W,1,05,3.2,361.6,M,-31.2,M,,*7E
$GPGSA,A,3,04,,,11,17,,,,,27,28,,4.1,3.2,1.0*3A
$GPGSV,3,1,12,04,19,204,44,07,18,167,00,08,51,192,00,11,43,053,51*7F
$GPGSV,3,2,12,17,54,285,36,19,00,062,00,20,16,113,40,25,02,162,00*78
$GPGSV,3,3,12,26,09,272,00,27,28,177,40,28,68,356,36,32,11,087,33*75
$GPGLL,3409.1946,N,08358.1600,W,155526,A,A*50
$GPBOD,,T,,M,,*47
$PGRME,8.5,M,15.6,M,18.1,M*29
$PGRMZ,1186,f,3*25
$GPRTE,1,1,c,*37
$GPRMC,155528,A,3409.1725,N,08358.1807,W,50.4,217.9,071208,4.5,W,A*23
$GPRMB,A,,,,,,,,,,,,A,A*0B
$GPGGA,155528,3409.1725,N,08358.1807,W,1,05,2.1,361.3,M,-31.2,M,,*75
$GPGSA,A,3,04,,,11,17,,,,,27,28,,4.2,2.1,1.3*38
$GPGSV,3,1,12,04,19,204,44,07,18,167,00,08,51,192,00,11,43,053,51*7F
$GPGSV,3,2,12,17,54,285,41,19,00,062,00,20,16,113,41,25,02,162,00*79
$GPGSV,3,3,12,26,09,272,00,27,28,177,40,28,68,356,36,32,11,087,35*73
$GPGLL,3409.1725,N,08358.1807,W,155528,A,A*5C
$GPBOD,,T,,M,,*47
$PGRME,8.0,M,15.6,M,18.0,M*2D
$PGRMZ,1185,f,3*26
$GPRTE,1,1,c,*37
$GPRMC,155530,A,3409.1501,N,08358.2019,W,51.5,217.8,071208,4.5,W,A*2B
$GPRMB,A,,,,,,,,,,,,A,A*0B
$GPGGA,155530,3409.1501,N,08358.2019,W,1,05,2.1,360.2,M,-31.2,M,,*7C
$GPGSA,A,3,04,,,11,17,,,,,27,28,,4.6,2.1,1.3*3C
$GPGSV,3,1,12,04,19,204,44,07,18,167,00,08,51,192,00,11,43,053,51*7F
$GPGSV,3,2,12,17,54,285,41,19,00,062,00,20,16,113,41,25,02,162,00*79
$GPGSV,3,3,12,26,09,272,00,27,28,177,41,28,68,356,35,32,11,087,35*71
$GPGLL,3409.1501,N,08358.2019,W,155530,A,A*55
$GPBOD,,T,,M,,*47
$PGRME,8.1,M,16.2,M,18.5,M*2E
$PGRMZ,1182,f,3*21
$GPRTE,1,1,c,*37
$GPRMC,155532,A,3409.1269,N,08358.2231,W,52.4,217.3,071208,4.5,W,A*21
$GPRMB,A,,,,,,,,,,,,A,A*0B
$GPGGA,155532,3409.1269,N,08358.2231,W,1,06,2.1,358.7,M,-31.2,M,,*72
$GPGSA,A,3,04,,08,11,17,,,,,27,28,,4.6,2.1,1.3*34
$GPGSV,3,1,12,04,19,204,44,07,18,167,00,08,51,192,34,11,43,053,50*79
$GPGSV,3,2,12,17,54,285,43,19,00,062,00,20,16,113,41,25,02,162,00*7B
$GPGSV,3,3,12,26,09,272,00,27,28,177,40,28,68,356,34,32,11,087,38*7C
$GPGLL,3409.1269,N,08358.2231,W,155532,A,A*56
$GPBOD,,T,,M,,*47
$PGRME,6.5,M,14.8,M,16.1,M*26
$PGRMZ,1177,f,3*2B
$GPRTE,1,1,c,*37
$GPRMC,155534,A,3409.1038,N,08358.2443,W,52.1,217.4,071208,4.5,W,A*20
$GPRMB,A,,,,,,,,,,,,A,A*0B
$GPGGA,155534,3409.1038,N,08358.2443,W,1,06,2.1,357.9,M,-31.2,M,,*70
$GPGSA,A,3,04,,08,11,17,,,,,27,28,,4.6,2.1,1.3*34
$GPGSV,3,1,12,04,19,204,44,07,18,167,00,08,51,192,00,11,43,053,51*7F
$GPGSV,3,2,12,17,54,285,43,19,00,062,00,20,16,113,42,25,02,162,00*78
$GPGSV,3,3,12,26,09,272,00,27,28,177,40,28,68,356,34,32,11,087,38*7C
$GPGLL,3409.1038,N,08358.2443,W,155534,A,A*55
$GPBOD,,T,,M,,*47
$PGRME,6.5,M,14.8,M,16.1,M*26
$PGRMZ,1174,f,3*28
$GPRTE,1,1,c,*37
$GPRMC,155536,A,3409.0810,N,08358.2653,W,51.5,217.7,071208,4.5,W,A*26
$GPRMB,A,,,,,,,,,,,,A,A*0B
$GPGGA,155536,3409.0810,N,08358.2653,W,1,06,2.1,357.5,M,-31.2,M,,*7E
$GPGSA,A,3,04,,08,11,17,,,,,27,28,,4.6,2.1,1.3*34
$GPGSV,3,1,12,04,19,204,44,07,18,167,00,08,51,192,00,11,43,053,51*7F
$GPGSV,3,2,12,17,54,285,43,19,00,062,00,20,16,113,43,25,02,162,00*79
$GPGSV,3,3,12,26,09,272,00,27,28,177,40,28,68,356,35,32,11,087,38*7D
$GPGLL,3409.0810,N,08358.2653,W,155536,A,A*57
$GPBOD,,T,,M,,*47
$PGRME,6.6,M,14.9,M,16.3,M*26
$PGRMZ,1173,f,3*2F
$GPRTE,1,1,c,*37
$GPRMC,155538,A,3409.0585,N,08358.2864,W,51.1,218.0,071208,4.5,W,A*2F
$GPRMB,A,,,,,,,,,,,,A,A*0B
$GPGGA,155538,3409.0585,N,08358.2864,W,1,06,2.1,358.2,M,-31.2,M,,*73
$GPGSA,A,3,04,,08,11,17,,,,,27,28,,4.4,2.1,1.6*33
$GPGSV,3,1,12,04,19,204,44,07,18,167,00,08,51,192,00,11,43,053,51*7F
$GPGSV,3,2,12,17,54,285,43,19,00,062,00,20,16,113,43,25,02,162,00*79
$GPGSV,3,3,12,26,09,272,00,27,28,177,40,28,68,356,36,32,11,087,38*7E
$GPGLL,3409.0585,N,08358.2864,W,155538,A,A*52
$GPBOD,,T,,M,,*47
$PGRME,6.6,M,14.9,M,16.3,M*26
$PGRMZ,1175,f,3*29
$GPRTE,1,1,c,*37
$GPRMC,155540,A,3409.0362,N,08358.3072,W,50.7,218.1,071208,4.5,W,A*27
$GPRMB,A,,,,,,,,,,,,A,A*0B
$GPGGA,155540,3409.0362,N,08358.3072,W,1,06,2.1,359.6,M,-31.2,M,,*78
$GPGSA,A,3,04,,08,11,17,,,,,27,28,,4.4,2.1,1.6*33
$GPGSV,3,1,12,04,19,204,44,07,18,167,00,08,51,192,34,11,43,053,51*78
$GPGSV,3,2,12,17,54,285,44,19,00,062,00,20,16,113,42,25,02,162,00*7F
$GPGSV,3,3,12,26,09,272,00,27,28,177,40,28,68,356,37,32,11,087,39*7E
$GPGLL,3409.0362,N,08358.3072,W,155540,A,A*5C
$GPBOD,,T,,M,,*47
$PGRME,6.2,M,12.4,M,13.8,M*27
$PGRMZ,1180,f,3*23
$GPRTE,1,1,c,*37
$GPRMC,155542,A,3409.0139,N,08358.3282,W,51.0,218.2,071208,4.5,W,A*21
$GPRMB,A,,,,,,,,,,,,A,A*0B
$GPGGA,155542,3409.0139,N,08358.3282,W,1,06,1.7,361.0,M,-31.2,M,,*73
$GPGSA,A,3,04,,08,11,17,,,,,27,28,,3.4,1.7,1.7*30
$GPGSV,3,1,12,04,19,204,43,07,18,167,00,08,51,192,35,11,43,053,51*7E
$GPGSV,3,2,12,17,54,285,44,19,00,062,00,20,16,113,43,25,02,162,00*7E
$GPGSV,3,3,12,26,09,272,00,27,28,177,40,28,68,356,37,32,11,087,38*7F
$GPGLL,3409.0139,N,08358.3282,W,155542,A,A*5F
$GPBOD,,T,,M,,*47
$PGRME,6.2,M,12.4,M,13.8,M*27
$PGRMZ,1184,f,3*27
$GPRTE,1,1,c,*37
$GPRMC,155544,A,3408.9914,N,08358.3492,W,51.1,218.0,071208,4.5,W,A*2C
$GPRMB,A,,,,,,,,,,,,A,A*0B
$GPGGA,155544,3408.9914,N,08358.3492,W,1,06,1.8,361.9,M,-31.2,M,,*7B
$GPGSA,A,3,04,,08,11,17,,,,,27,28,,3.5,1.8,1.9*30
$GPGSV,3,1,12,04,19,204,43,07,18,167,00,08,51,192,34,11,43,053,51*7F
$GPGSV,3,2,12,17,54,285,44,19,00,062,00,20,16,113,42,25,02,162,00*7F
$GPGSV,3,3,12,26,09,272,00,27,28,177,39,28,68,356,37,32,11,087,39*70
